code,name,latitude,longitude,city_code,
AAA,Anaa,-17.3506654,-145.5111199,AAA,아나
AAB,Arrabury Airport,-26.6967835,141.049092,AAB,아라베리 공항
AAC,El Arish International Airport,31.0742836,33.82917152,AAC,엘 아리시 국제공항
AAD,Adado Airport,6.09628635,46.63770837,AAD,아다도 공항
AAE,Les Salines Airport,36.821392,7.811857,AAE,레 살리네스 공항
AAF,Apalachicola Regional,29.7302356,-85.02964472,AAF,아팔라치콜라 지역
AAG,Arapoti,-24.1037812,-49.78949435,AAG,아라포티
AAH,Aachen/Merzbruck,50.75,6.133333,AAH,아헨/메르츠브루크
AAI,Arraias,-12.916667,-46.933334,AAI,아라이아스
AAJ,Cayana Airstrip,3.8987445,-55.5779688,AAJ,카야나 활주로
AAK,Aranuka,0.166667,173.58333,AAK,아라누카
AAL,Aalborg Airport,57.0864352,9.868075521,AAL,올보르 공항
AAM,Mala Mala,-24.8,31.533333,AAM,말라 말라
AAN,Al Ain Airport,24.260231,55.616627,AAN,알아인 공항
AAO,Anaco,9.4298739,-64.47086335,AAO,아나코
AAP,Andrau Airpark,29.833332,-95.666664,HOU,안드라우 비행장
AAQ,Anapa Airport,45.00265265,37.34498314,AAQ,아나파 공항
AAR,Aarhus Airport,56.30454255,10.61284982,AAR,오르후스 공항
AAS,Apalapsili,-3.880849,139.3107061,AAS,아팔랍실리
AAT,Altay Airport,47.74833705,88.08948249,AAT,알타이 공항
AAU,Asau,-13.458333,-172.6,AAU,아사우
AAV,Allah Valley,6.36768745,124.7526616,AAV,알라 밸리
AAW,Abbottabad,34.2,73.25,AAW,아보타바드
AAX,Araxa Airport,-19.563132,-46.96040575,AAX,아락사 공항
AAY,Al Ghaydah,16.1879658,52.17271502,AAY,알 가이다
AAZ,Quetzaltenango,14.8611558,-91.50677134,AAZ,케찰테낭고
ABA,Abakan Airport,53.716667,91.5,ABA,아바칸 공항
ABB,Asaba International Airport,6.20565465,6.663854565,ABB,아사바 국제공항
ABC,Los Llanos,38.948334,-1.863333,ABC,로스야노스
ABD,Abadan Airport,30.3668469,48.22843951,ABD,아바단 공항
ABE,Lehigh Valley International Airport,40.6511631,-75.44225387,ABE,리하이 밸리 국제공항
ABF,Abaiang,1.670833,173.30417,ABF,아바이앙
ABG,Abingdon,-17.666668,143.2,ABG,애빙던
ABH,Alpha,-23.65,146.63333,ABH,알파
ABI,Abilene Regional Airport,32.40774375,-99.67936993,ABI,애빌린 지역공항
ABJ,Felix Houphouet Boigny Airport,5.2649283,-3.925957339,ABJ,펠릭스 후푸에 보이니 공항
ABK,Kabri Dar,6.733889,44.26611,ABK,카브리 다르
ABL,Ambler Airport,67.1058333,-157.8536111,ABL,앰블러 공항
ABM,Northern Peninsula Airport,-10.942619,142.45033,ABM,노던 페닌슐라 공항
ABN,Albina,5.5,-54.083332,ABN,알비나
ABO,Aboisso,5.433333,-3.216667,ABO,아부아소
ABP,Atkamba,-6.06470215,141.0952152,ABP,아트캄바
ABQ,Albuquerque International Sunport,35.03766945,-106.6109675,ABQ,앨버커키 인터내셔널 선포트
ABR,Aberdeen Municipal Airport,45.4525,-98.42611,ABR,애버딘 시립공항
ABS,Abu Simbel,22.3722282,31.61302768,ABS,아부 심벨
ABT,Al-Aqiq Airport,20.296139,41.634277,ABT,알아키크 공항
ABU,Haliwen Airport,-9.133333,124.88333,ABU,할리웬 공항
ABV,Nnamdi Azikiwe International Airport,9.00668065,7.265007351,ABV,은남디 아지키웨 국제공항
ABW,Abau,-10.183333,148.7,ABW,아바우
ABX,Albury Airport,-36.06894285,146.9518768,ABX,앨버리 공항
ABY,Southwest Georgia Regional Airport,31.5339678,-84.19254493,ABY,사우스웨스트 조지아 지역 공항
ABZ,Aberdeen International Airport,57.20195485,-2.20199135,ABZ,애버딘 국제공항
ACA,Acapulco International Airport,16.7565936,-99.75293698,ACA,아카풀코 국제공항
ACB,Antrim County,44.98832545,-85.1971963,ACB,앤트림 카운티
ACC,Kotoka International Airport,5.60428935,-0.167967626,ACC,코토카 국제공항
ACD,Acandi,8.516667,-77.3,ACD,아칸디
ACE,Lanzarote Airport,28.94568045,-13.60758816,ACE,란사로테 공항
ACF,Alaer Talimu Airport,40.464167,81.246944,ACF,알라에르 탈리무 공항
ACH,Altenrhein Airport,47.4859603,9.5598603,ACH,알텐라인 공항
ACI,Alderney Airport,49.70694185,-2.214498597,ACI,올더니 공항
ACJ,Anuradhapura,8.35,80.38333,ACJ,아누라다푸라
ACK,Nantucket Memorial Airport,41.2563506,-70.06422704,ACK,낸터컷 메모리얼 공항
ACL,Aguaclara,4.7470509,-72.9919234,ACL,아과클라라
ACM,Arica,-2,-71.833336,ACM,아리카
ACN,International,29.3,-100.916664,ACN,국제적인
ACO,Cobano Airport,9.693365,-85.091216,ACO,코바노 공항
ACP,Sahand,37.3477904,46.1241049,ACP,사한드
ACR,Araracuara,-0.383333,-72.3,ACR,아라라쿠아라
ACS,Achinsk,56.270124,90.57983018,ACS,아친스크
ACT,Waco Municipal Airport,31.609133,-97.22321,ACT,와코 시립공항
ACU,Achutupo,9.576389,-79.72444,ACU,아추투포
ACV,Arcata-Eureka Airport,40.9763645,-124.1084259,ACV,아르카타-유레카 공항
ACX,Xingyi Airport,25.0839707,104.9588029,ACX,싱이 공항
ACY,Atlantic City International Airport,39.45708535,-74.57027649,AIY,애틀랜틱시티 국제공항
ACZ,Zabol Airport,31.09702475,61.54236908,ACZ,자볼 공항
ADA,Adana Airport,36.98503,35.29736,ADA,아다나 공항
ADB,Izmir Adnan Menderes Airport,38.28959325,27.15881974,IZM,이즈미르 아드난 멘데레스 공항
ADC,Andakombe,-7.1371023,145.74531,ADC,안다콤베
ADD,Addis Ababa Bole International Airport,8.97958075,38.79727969,ADD,아디스아바바 볼레 국제공항
ADE,International,12.826116,45.037537,ADE,국제적인
ADF,Adiyaman Airport,37.75,38.266666,ADF,아디야만 공항
ADG,Lenawee County,41.9,-84.03333,ADG,레나위 카운티
ADH,Aldan,58.6034931,125.4044631,ADH,알단
ADI,Arandis,-22.4,15,ADI,아란디스
ADJ,Marka International Airport,31.97342425,35.99461255,AMM,마르카 국제공항
ADK,Adak Island Ns,51.88278,-176.64473,ADK,아닥섬 Ns
ADL,Adelaide Airport,-34.94724045,138.5330688,ADL,애들레이드 공항
ADM,Ardmore Municipal Airport,34.3028,-97.0192,ADM,아드모어 시립공항
ADN,Andes,5.666667,-75.933334,ADN,안데스
ADO,Andamooka,-31.016666,137.15,ADO,안다무카
ADP,Ampara,7.3385247,81.62522425,ADP,암파라
ADQ,Kodiak Benny Benson State Airport,57.755276,-152.51297,ADQ,코디악 베니 벤슨 주립공항
ADR,Andrews,33.45,-79.566666,ADR,앤드류스
ADS,Addison Airport,32.783333,-97.3,DFW,애디슨 공항
ADT,Ada Municipal,34.80490015,-96.667616,ADT,에이다 시립
ADU,Ardabil Airport,38.32367895,48.41727863,ADU,아르다빌 공항
ADV,El Daein,11.4043102,26.1186495,ADV,엘다인
ADW,Andrews AFB,38.8057469,-76.87741646,ADW,앤드류스 AFB
ADX,Leuchars,56.37559905,-2.859633955,ADX,루카르
ADY,Alldays,-22.67767555,29.05339556,ADY,종일
ADZ,Gustavo Rojas Pinilla Airport,12.586047,-81.70221,ADZ,구스타보 로하스 피니야 공항
AEA,Abemama Atoll,0.490833,173.8289948,AEA,아베마마 환초
AEB,Youjiang,23.72020895,106.9609714,AEB,유장
AED,Aleneva,58.033333,-152.9,AED,알레네바
AEE,Adareil Airport,10.0524392,32.96200721,AEE,아다레일 공항
AEG,Aek Godang,1.3999604,99.42983273,AEG,액고당
AEH,Ab챕ch챕,13.8465726,20.84964504,AEH,아베셰
AEI,Algeciras,36.1289,-5.441301,AEI,알헤시라스
AEK,Aseki,-7.366667,146.28334,AEK,아세키
AEL,Albert Lea,43.6800949,-93.36737639,AEL,앨버트 레아
AEM,Amgu,45.8414555,137.6736409,AEM,암구
AEO,Aioun El Atrouss,16.71068715,-9.638219081,AEO,아이운 엘 아트루스
AEP,Jorge Newbery Airport,-34.55622,-58.41667,BUE,호르헤 뉴베리 공항
AEQ,Ar Horqin Airport,43.90797955,120.149348,AEQ,아르 호친 공항
AER,Sochi International Airport,43.44397145,39.94009276,AER,소치 국제공항
AES,Vigra Alesund Airport,62.56018535,6.113415709,AES,비그라 올레순드 공항
AET,Allakaket,66.551934,-152.6214482,AET,알라카켓
AEU,Abu Musa,25.87599365,55.03426596,AEU,아부 무사
AEX,Alexandria International Airport,31.32927365,-92.54095487,AEX,알렉산드리아 국제공항
AEY,Akureyri Airport,65.65698725,-18.07060713,AEY,아쿠레이리 공항
AFA,San Rafael Airport,-34.58917,-68.40056,AFA,산라파엘 공항
AFD,Port Alfred,-33.583332,26.883333,AFD,포트 알프레드
AFF,USAF Academy Airstrip,38.833332,-104.7,COS,USAF 아카데미 활주로
AFI,Amalfi,6.8953157,-75.0467996,AFI,아말피
AFK,Ampara Kondavattavan Tank Airport,7.342169543,81.62931221,ADP,암파라 콘다바타반 탱크 공항
AFL,Alta Floresta Airport,-9.866163,-56.10603812,AFL,알타 플로레스타 공항
AFN,Municipal,42.833332,-72.066666,AFN,시립
AFO,Municipal,42.733334,-110.933334,AFO,시립
AFR,Afore,-9.13834475,148.3909714,AFR,전에
AFS,Zarafshan,41.6155248,64.2317714,AFS,자라프샨
AFT,Afutara Aerodrome,-9.2,160.85,AFT,아푸타라 비행장
AFW,Fort Worth Alliance Airport,32.99299785,-97.31836461,DFW,포트워스 얼라이언스 공항
AFY,Afyon,38.733334,30.6,AFY,아피온
AFZ,Sabzevar,36.171675,57.59941596,AFZ,사브제바르
AGA,Agadir Al Massira Airport,30.378326,-9.555895,AGA,아가디르 알 마시라 공항
AGB,Augsburg Airport,48.425278,10.931667,MUC,아우크스부르크 공항
AGC,Allegheny County Airport,40.3534454,-79.92904654,PIT,앨러게니 카운티 공항
AGD,Anggi,-1.383333,133.86667,AGD,앙기
AGE,Flugplatz,53.783333,7.916667,AGE,플럭플라츠
AGF,La Garenne Airport,44.17361,0.598611,AGF,라 가렌 공항
AGG,Angoram,-4.168611,144.07388,AGG,앙고람
AGH,Angelholm Helsingborg Airport,56.2972346,12.85284684,AGH,앙헬홀름 헬싱보리 공항
AGI,Wageningen,5.833333,-56.833332,AGI,바헤닝겐
AGJ,Aguni,26.59300295,127.2398599,AGJ,아구니
AGK,Kagua,-6.403333,143.84666,AGK,카구아
AGL,Wanigela,-9.33738355,149.1561027,AGL,와니겔라
AGM,Tasiilaq,65.6,-37.683334,AGM,타실라크
AGN,Angoon,57.503887,-134.58333,AGN,앙군
AGO,Municipal,33.266666,-93.23333,AGO,시립
AGP,Malaga Airport,36.67876135,-4.499980126,AGP,말라가 공항
AGQ,Agrinion,38.6137021,21.3929834,AGQ,아그리니온
AGR,Kheria,27.158333,77.962776,AGR,케리아
AGS,Augusta Regional Airport,33.37230205,-81.96506391,AGS,오거스타 지역공항
AGT,Alejo Garcia Airport,-25.5,-54.833332,AGT,알레호 가르시아 공항
AGU,Aguascalients International Airport,21.701416,-102.31374,AGU,아과스칼리엔츠 국제공항
AGV,Acarigua,9.552222,-69.23333,AGV,아카리구아
AGW,Agnew,-12.1453511,142.1490609,AGW,아그뉴
AGX,Agatti Island Airport,10.828967,72.17987,AGX,아가티 아일랜드 공항
AGZ,Aggeneys,-29.05,18.85,AGZ,아게네이
AHA,Naha AFB,26.2,127.65,OKA,나하 AFB
AHB,Abha Regional Airport,18.23429,42.657574,AHB,아바 지역 공항
AHC,Amedee AAF,40.15,-120.13333,AHC,아메디 AAF
AHD,Downtown,34.166668,-97.13333,ADM,도심
AHE,Ahe Airport,-14.4280996,-146.2570038,AHE,아헤 공항
AHF,Municipal,40.3,-99.9,AHF,시립
AHG,Agalega Island Airstrip,-10.3717,56.60313,AHG,아갈레가 섬 활주로
AHH,Municipal,45.3,-92.35,AHH,시립
AHI,Amahai,-3.34785185,128.9274633,AHI,아마하이
AHJ,Hongyuan Airport,32.5367833,102.3502295,AHJ,홍위안 공항
AHL,Aishalton,2.4755665,-59.3194477,AHL,아이샬턴
AHM,Sumner Parker Field,42.19029999,-122.6610031,AHM,섬너 파커 필드
AHN,Athens-Ben Epps,33.9487053,-83.32973998,AHN,아테네-벤 엡스
AHO,Alghero-Fertilia Airport,40.63087935,8.288375274,AHO,알게로-페르틸리아 공항
AHS,Ahuas,15.4819002,-84.4160995,AHS,아후아스
AHU,Charif Al Idrissi Airport,35.17972,-3.836944,AHU,샤리프 알 이드리시 공항
AHW,Saih Rawl,31.34292,48.74668,AHW,사이 롤
AHY,Ambatolahy,-20.0153265,45.5375864,AHY,암바톨라히
AHZ,Alpe D Huez,45.0870881,6.082792928,AHZ,알프 D 휴즈
AIA,Alliance Airport,42.051666,-102.80666,AIA,얼라이언스 공항
AIC,Airok,7.5,170.83333,AIC,에어록
AID,Municipal,40.166668,-85.683334,AID,시립
AIE,Aiome,-5.166667,144.66667,AIE,아이오메
AIF,Assis,-22.666668,-50.416668,AIF,아시스
AIG,Yalinga,6.521706,23.2605938,AIG,얄링가
AIH,Aiambak,-7.34368705,141.2679197,AIH,아이암박
AII,Alisabieh,11.15,42.716667,AII,알리사비에
AIK,Municipal,33.566666,-81.71667,AIK,시립
AIL,Ailigandi,9.25,-78.083336,AIL,아이리간디
AIM,Ailuk Island,10.2164987,169.9825736,AIM,아이루크 섬
AIN,Wainwright,70.63790295,-160.0150279,AIN,웨인라이트
AIO,Municipal,41.4,-95.01667,AIO,시립
AIP,Ailinglapalap Island,7.266667,168.81667,AIP,아일링라팔랍 섬
AIR,Aripuana,-10.25,-59.38333,AIR,아리푸아나
AIS,Arorae Island,-2.65,176.83333,AIS,아로래섬
AIT,Aitutaki Airport,-18.8364468,-159.76131,AIT,아이투타키 공항
AIU,Atiu Island,-20.033333,-158.1,AIU,아티우섬
AIV,George Downer,33.13333,-88.15,AIV,조지 다우너
AIW,Ai-ais,-27.9948193,17.59645141,AIW,아이아이스
AIY,Bader Field,39.3859082,-74.4254622,AIY,베이더 필드
AIZ,Lee C Fine Memorial,38.0924572,-92.5535179,AIZ,이씨화인 기념관
AJA,Ajaccio Napoleon Bonaparte Airport,41.91987,8.794013,AJA,아작시오 나폴레옹 보나파르트 공항
AJF,Jouf Airport,29.788668,40.101486,AJF,주프 공항
AJI,Agri Airport,39.65,43.025,AJI,아그리 공항
AJJ,Akjoujt,19.72837225,-14.37806484,AJJ,악주이트
AJK,Araak,34.13333,49.833332,AJK,아라크
AJL,Aizawl Airport,23.8407048,92.62105704,AJL,아이자울 공항
AJN,Ouani,-12.12890235,44.42886317,AJN,우아니
AJR,Arvidsjaur Airport,65.5920366,19.26458591,AJR,아르비스야우르 공항
AJS,Abreojos,26.833332,-113.666664,AJS,아브레오호스
AJU,Aracaju Airport,-10.98281225,-37.07602528,AJU,아라카주 공항
AJY,Agades,16.96522395,7.997894294,AJY,아가데스
AKA,Ankang,32.7081,108.9311505,AKA,안강
AKB,Atka,52.22221525,-174.2066819,AKB,아트카
AKC,Fulton International,41.04,-81.46778,CAK,풀턴 인터내셔널
AKD,Akola,20.697417,77.06134451,AKD,아콜라
AKE,Akieni,-1.13967,13.9035997,AKE,아키에니
AKF,Kufrah,24.17807115,23.31398076,AKF,쿠프라
AKG,Anguganak,-3.633333,142.01666,AKG,안구가낙
AKH,Prince Sultan Air Base,24.063334,47.580555,AKH,프린스 술탄 공군기지
AKI,Akiak,60.9052437,-161.2268225,AKI,아키악
AKJ,Asahikawa Airport,43.6686785,142.4513869,AKJ,아사히카와 공항
AKK,Akhiok SPB,56.944443,-154.16667,AKK,아키옥 SPB
AKL,Auckland Airport,-37.00889695,174.7912138,AKL,오클랜드 공항
AKM,Zakouma,10.8875904,19.8153005,AKM,자쿠마
AKN,King Salmon Airport,58.6753166,-156.649387,AKN,킹 새먼 공항
AKO,Colorado Plains Regional Airport,40.17740845,-103.2274355,AKO,콜로라도 플레인스 지역공항
AKP,Anaktuvuk,68.13254385,-151.7456225,AKP,아낙투부크
AKQ,Gunung Batin,-4.616667,105.23333,AKQ,구눙 바틴
AKR,Akure,7.25,5.083333,AKR,아쿠레
AKS,Gwaunaru'u,-8.7042047,160.6817763,AKS,과우나루우
AKT,Raf Akrotiri,34.5903698,32.9877483,AKT,라프 아크로티리
AKU,Aksu Airport,41.2625,80.291667,AKU,악수 공항
AKV,Akulivik,60.733334,-78.583336,AKV,아쿨리비크
AKW,Aghajari,30.74386435,49.67943964,AKW,아가자리어
AKX,Aktyubinsk Airport,50.249336,57.211403,AKX,악튜빈스크 공항
AKY,Civil Airport,20.130278,92.88028,AKY,민간 공항
ALA,Almaty Airport,43.35568625,77.04258379,ALA,알마티 공항
ALB,Albany International Airport,42.7457516,-73.8092091,ALB,올버니 국제공항
ALC,Alicante-Elche Airport,38.2888263,-0.5542897,ALC,알리칸테-엘체 공항
ALD,Alerta,-11.683333,-69.333336,ALD,알리타
ALE,Alpine,30.416668,-103.75,ALE,알파인
ALF,Alta Airport,69.9771632,23.35951897,ALF,알타 공항
ALG,Houari Boumediene Airport,36.7013497,3.210903183,ALG,후아리 부메디엔 공항
ALH,Albany Airport,-34.9443954,117.8095889,ALH,올버니 공항
ALI,International,27.75,-98.066666,ALI,국제적인
ALJ,Alexander Bay Airport,-28.573333,16.534444,ALJ,알렉산더 베이 공항
ALK,Asela,7.966667,39.11667,ALK,아셀라
ALL,Albenga,44.05,8.216667,ALL,알벤가
ALM,Municipal,32.845833,-105.985275,ALM,시립
ALN,Alton,38.891666,-90.04833,ALN,알톤
ALO,Waterloo Airport,42.55611,-92.39972,ALO,워털루 공항
ALP,Nejrab,36.185352,37.227074,ALP,네즈랍
ALQ,Federal,-29.799723,-55.763332,ALQ,연방
ALR,Alexandra,-45.21389,169.36945,ALR,알렉산드라
ALS,Alamosa Municipal Airport,37.43667,-105.86667,ALS,앨라모사 시립공항
ALT,Alenquer,-1.933333,-54.766666,ALT,알렌케르
ALU,Alula,11.966667,50.8,ALU,알룰라
ALW,Walla Walla Airport,46.0940857,-118.2911423,ALW,왈라왈라 공항
ALX,Thomas C Russell Field,32.91343435,-85.96246743,ALX,토마스 C. 러셀 필드
ALY,El Nohza,31.192545,29.953058,ALY,엘 노자
ALZ,Alitak SPB,56.895832,-154.24583,ALZ,알리탁 SPB
AMA,Rick Husband Amarillo International Airport,35.21959415,-101.7018304,AMA,릭 남편 아마릴로 국제공항
AMB,Ambilobe,-13.1865961,48.9876126,AMB,앰빌로베
AMC,Am Timan,11.0350134,20.27470129,AMC,암 티만
AMD,Ahmedabad Airport,23.0855562,72.6305442,AMD,아마다바드 공항
AME,Alto Molocue,-15.833333,37.583332,AME,알토 몰로쿠에
AMF,Ama,-4.166667,141.66667,AMF,아마
AMG,Amboin,-4.616667,143.7,AMG,암보인
AMH,Arba Mintch Airport,6.036111,37.576942,AMH,아르바민치 공항
AMI,Selaparang,-8.5618359,116.1022297,AMI,셀라파랑
AMJ,Almenara,-16.183332,-40.683334,AMJ,알메나라
AMK,Animas Airpark,37.15,-107.75,DRO,애니마스 에어파크
AML,Puerto Armuellas,8.266667,-82.86667,AML,푸에르토 아르무엘라스
AMM,Queen Alia International Airport,31.7241013,35.99544021,AMM,퀸 알리아 국제공항
AMN,Gratiot Community,43.38333,-84.65,AMN,그래티오트 커뮤니티
AMO,Mao,14.116667,15.316667,AMO,마오
AMP,Ampanihy,-24.6996994,44.7341995,AMP,암파니히
AMQ,Pattimura Airport,-3.71111525,128.0878877,AMQ,파티무라 공항
AMR,Arno,7.033333,171.23334,AMR,아르노
AMS,Amsterdam Airport Schiphol,52.32697895,4.7415052,AMS,암스테르담 스키폴 공항
AMT,Amata,-26.766666,132.03334,AMT,아마타
AMU,Amanab,-3.516667,141.15,AMU,아마납
AMV,Amderma,69.7634173,61.56749324,AMV,암더마
AMW,Ames,41.9903107,-93.62215445,AMW,에임스
AMX,Ammaroo,-21.7383003,135.2420044,AMX,아마루
AMY,Ambatomainty,-17.683332,45.666668,AMY,암바토마인티
AMZ,Ardmore,-37.033333,174.96666,AMZ,아드모어
ANA,John Wayne International,33.816666,-117.933334,ANA,존 웨인 인터내셔널
ANB,Anniston Metropolitan,33.59028,-85.855835,ANB,애니스턴 메트로폴리탄
ANC,Ted Stevens Anchorage International Airport,61.18103525,-149.9978919,ANC,테드 스티븐스 앵커리지 국제공항
AND,Anderson,34.49361,-82.71,AND,앤더슨
ANE,Angers-Marce Airport,47.466667,-0.55,ANE,앙제-마르스 공항
ANF,Cerro Moreno International Airport,-23.4523757,-70.43973434,ANF,세로 모레노 국제공항
ANG,Brie-Champniers,45.733334,0.216667,ANG,브리 챔프니어
ANH,Anuha Island Resort,-8.983333,160.5,ANH,아누하 아일랜드 리조트
ANI,Aniak Airport,61.5813889,-159.5427778,ANI,아니악 공항
ANJ,Zanaga,-2.8474064,13.8214267,ANJ,자나가
ANK,Etimesgut,39.9517942,32.68941441,ANK,에티메스구트
ANL,Andulo,-11.25,17.25,ANL,안둘로
ANM,Antsirabato,-14.9990678,50.3182525,ANM,안치라바토
ANN,Annette Island,55.0415764,-131.5646265,ANN,아네트 섬
ANO,Angoche,-16.18367445,39.94441129,ANO,앙고체
ANP,Lee,38.983334,-76.5,ANP,이씨
ANQ,Tri-State Steuben County,41.63333,-85,ANQ,트라이스테이트 스튜벤 카운티
ANR,Antwerp International Airport,51.1881429,4.463473861,ANR,앤트워프 국제공항
ANS,Andahuaylas,-13.709079,-73.35160446,ANS,안다와일라스
ANT,St Anton,47.15,10.283333,ANT,세인트 안톤
ANU,V.C. Bird International Airport,17.13578595,-61.79381928,ANU,V.C. 버드 국제공항
ANV,Anvik Airport,62.6451092,-160.1932999,ANV,앤빅 공항
ANW,Ainsworth,42.55,-99.86667,ANW,애인스워스
ANX,Andenes Airport,69.29132535,16.13968095,ANX,안데네스 공항
ANY,Anthony,37.15,-98.03333,ANY,앤서니
ANZ,Angus Downs,-25.083332,132.16667,ANZ,앵거스 다운스
AOA,Aroa,-9.05,146.8,AOA,아로아
AOB,Annanberg,-4.916667,144.65,AOB,아난베르크
AOC,Altenburg Nobitz,50.98321195,12.50986326,AOC,알텐부르크 노비츠
AOD,Abou Deia,11.4637088,19.2874812,AOD,아부 데이아
AOE,Anadolu University,39.81,30.519444,ESK,아나돌루 대학교
AOG,Anshan Teng'ao Airport,41.166668,123.03333,AOG,안산 텅아오 공항
AOH,Allen County,40.766666,-84.1,AOH,앨런 카운티
AOI,Ancona Falconara Airport,43.61716225,13.36485803,AOI,안코나 팔코나라 공항
AOJ,Aomori Airport,40.7340525,140.689686,AOJ,아오모리 공항
AOK,Karpathos Airport,35.42109615,27.14533345,AOK,카르파토스 공항
AOL,Paso De Los Libres,-29.68922305,-57.15101499,AOL,파소 데 로스 리브레스
AOM,Adam Airport,22.48980955,57.39154873,AOM,아담 공항
AON,Arona,-6.333333,146,AON,아로나
AOO,Altoona Airport,40.29686675,-78.32117438,AOO,앨투나 공항
AOP,Alferez FAP Alfredo Vladimir Sara Bauer Airport,-2.7952148,-76.46820104,AOP,알페레즈 FAP 알프레도 블라디미르 사라 바우어 공항
AOR,Sultan Abdul Halim Airport,6.1893478,100.3972145,AOR,술탄 압둘 할림 공항
AOS,Amook,57.4705133,-153.8166725,AOS,아묵
AOT,Corrado Gex,45.738779,7.368228953,AOT,코라도 젝스
AOU,Attopeu,14.8,106.833336,AOU,아토프
APA,Centennial Airport,39.733334,-104.98333,DEN,센테니얼 공항
APB,Apolo,-14.716667,-68.51667,APB,아폴로
APC,Napa County,38.216488,-122.2765713,APC,나파 카운티
APD,Arung Palakka Airport,-4.46021,120.30683,APD,아룽팔라카 공항
APE,San Juan Aposento,-11.933333,-69.083336,APE,산 후안 아포센토
APF,Naples Municipal Airport,26.1523225,-81.77394138,APF,나폴리 시립공항
APG,Phillips AAF,39.5,-76.166664,APG,필립스 AAF
APH,Camp A P Hill,38.05,-77.35,APH,캠프 AP 힐
API,Apiay,4.06889,-73.051903,API,아피아이
APJ,Ngari Burang Airport,30.3975,81.138611,APJ,응가리 부랑 공항
APK,Apataki,-15.416667,-146.08333,APK,아파타키
APL,Nampula Airport,-15.101667,39.287224,APL,남풀라 공항
APN,Alpena County Regional Airport,45.07017615,-83.56655477,APN,앨피나 카운티 지역공항
APO,Apartado Airport,7.817678,-76.71766,APO,아파르타도 공항
APP,Asapa,-8.97966935,148.1030075,APP,아사파
APQ,Arapiraca,-9.7765662,-36.62984999,APQ,아라피라카
APR,April River,-8.5,145,APR,에이프릴 강
APS,Anapolis,-16.333332,-48.966667,APS,아나폴리스
APT,Marion County,35.066666,-85.5,APT,매리언 카운티
APU,Apucarana,-23.55,-51.483334,APU,아푸카라나
APV,Apple Valley,34.52639,-117.212776,APV,애플 밸리
APW,Faleolo Airport,-13.832271,-171.999494,APW,팔레올로 공항
APX,Arapongas,-23.483334,-51.466667,APX,아라퐁가
APY,Alto Parnaiba,-9.133333,-45.933334,APY,알토 파르나이바
APZ,Zapala,-38.916668,-70.083336,APZ,자팔라
AQA,Araraquara,-21.816668,-48.13333,AQA,아라라콰라
AQB,Quiche Airport,15.01,-91.15,AQB,키체 공항
AQG,Anqing Tianzhushan Airport,30.5859116,117.0561799,AQG,안칭 티안주산 공항
AQI,Qaisumah Airport,28.3342381,46.1219356,AQI,카이수마 공항
AQJ,King Hussein International Airport,29.6101427,35.01904,AQJ,킹 후세인 국제공항
AQM,Ariquemes,-9.933333,-63.066666,AQM,아리케메스
AQP,Rodriguez Ballon International Airport,-16.3423105,-71.56895879,AQP,로드리게스 발롱 국제공항
AQS,Saqani,-17,170.9,AQS,사카니
AQY,Alyeska,60.9659745,-149.1234394,AQY,알리에스카
ARA,Acadiana Regional,30.03301825,-91.88190743,ARA,아카디아나 지역
ARB,Municipal,42.3,-83.75,ARB,시립
ARC,Arctic Village,68.1156573,-145.575639,ARC,북극마을
ARD,Alor Island Airport,-8.683333,124.53333,ARD,알로르섬 공항
ARE,Arecibo,18.4506187,-66.67429833,ARE,아레시보
ARF,Acaricuara,0.533333,-70.133333,ARF,아카리쿠아라
ARG,Walnut Ridge,36.066666,-90.95,ARG,월넛 리지
ARH,Talagi Airport,64.599209,40.71860471,ARH,탈라기 공항
ARI,Chacalluta Airport,-18.3527842,-70.34121844,ARI,차칼루타 공항
ARJ,Arso,-2.933333,140.78334,ARJ,아르소
ARK,Arusha Airport,-3.366667,36.683334,ARK,아루샤 공항
ARL,Arly,11.5970001,1.483,ARL,알리
ARM,Armidale Airport,-30.5286256,151.6156495,ARM,아미데일 공항
ARN,Stockholm Arlanda Airport,59.6467921,17.93704433,STO,스톡홀름 알란다 공항
ARO,Arboletas,8.85,-76.433334,ARO,아르볼레타스
ARP,Aragip,-9.8,149.5,ARP,아라집
ARQ,Arauquita,7.033056,-71.43166,ARQ,아라우키타
ARR,Alto Rio Senguerr,-45.033333,-70.833336,ARR,알토 리오 센구에르
ARS,Aragarcas,-15.8993998,-52.2411003,ARS,아라가르카스
ART,Watertown Airport,43.990833,-76.021385,ART,워터타운 공항
ARU,Aracatuba Airport,-21.140815,-50.42513909,ARU,아라사투바 공항
ARV,Noble F. Lee,45.924168,-89.73222,ARV,노블 F. 리
ARW,Arad,46.183334,21.266666,ARW,아라드
ARX,Asbury Park,40.216667,-74.1,ARX,애즈버리 파크
ARY,Ararat,-37.31213875,142.9942952,ARY,아라라트
ARZ,N'zeto,-7.5,13.5,ARZ,느제토
ASA,Assab International,13.07595515,42.6417473,ASA,아삽 인터내셔널
ASB,Ashgabat Airport,37.9837541,58.36266734,ASB,아시가바트 공항
ASC,Ascension,-15.916667,-63.15,ASC,승천
ASD,Andros Town,24.70832875,-77.77238142,ASD,안드로스 타운
ASE,Aspen Airport,39.219685,-106.864685,ASE,아스펜 공항
ASF,Astrakhan Airport,46.28016705,48.01890715,ASF,아스트라한 공항
ASG,Ashburton,-43.9,171.78334,ASG,애쉬버튼
ASH,Boire Field,42.78259315,-71.51763053,ASH,부아르 필드
ASI,Saint Helena Airport,-7.966667,-14.4,ASI,세인트 헬레나 공항
ASJ,Amami Airport,28.431206,129.7122505,ASJ,아마미 공항
ASK,Yamoussoukro,6.816667,-5.283333,ASK,야무수크로
ASL,Harrison County,32.55,-94.38333,ASL,해리슨 카운티
ASM,Asmara International Airport,15.2932452,38.91610962,ASM,아스마라 국제공항
ASN,Talladega,33.433334,-86.1,ASN,탈라데가
ASO,Asosa Airport,10.047222,34.536667,ASO,아소사 공항
ASP,Alice Springs Airport,-23.8062855,133.897735,ASP,앨리스 스프링스 공항
ASQ,Austin,39.4664739,-117.1970824,ASQ,오스틴
ASR,Kayseri Airport,38.77347525,35.49468493,ASR,카이세리 공항
ASS,Arathusa Safari Lodge,-24.7410105,31.5185186,ASS,아라투사 사파리 로지
AST,Astoria,46.15642245,-123.88301,AST,아스토리아
ASU,Silvio Pettirossi International Airport,-25.2355931,-57.51563884,ASU,실비오 페티로시 국제공항
ASV,Amboseli,-2.64532555,37.24857864,ASV,암보셀리
ASW,Aswan Airport,23.96342585,32.82937355,ASW,아스완 공항
ASX,Ashland,46.55,-90.916664,ASX,애쉬랜드
ASY,Ashley,46.033333,-99.36667,ASY,애쉴리
ASZ,Asirim,-5.866667,150.36667,ASZ,아시림
ATA,Anta,-9.34818315,-77.59829151,ATA,안타
ATB,Atbara,17.7068787,34.05635033,ATB,아트바라
ATC,Arthur's Town,24.6302173,-75.675918,ATC,아서스 타운
ATD,Atoifi,-8.872891,161.0112714,ATD,아토이피
ATE,Antlers,34.233334,-95.61667,ATE,뿔
ATF,Chachoan,-1.083333,-78.7,ATF,차초안
ATG,Attock,33.9,72.25,ATG,공격
ATH,Eleftherios Venizelos International Airport,37.9372535,23.95462429,ATH,엘레프테리오스 베니젤로스 국제공항
ATI,Artigas,-30.4,-56.50833,ATI,아르티가스
ATJ,Antsirabe,-19.85,47.016666,ATJ,안트시라베
ATK,Atqasuk Edward Burnell Sr. Memorial Airport,70.5,-157.33333,ATK,앳가숙 에드워드 버넬 시니어 메모리얼 공항
ATL,Hartsfield-Jackson Atlanta International Airport,33.63779875,-84.42927119,ATL,하츠필드 잭슨 애틀랜타 국제공항
ATM,Altamira Airport,-3.2,-52.216667,ATM,알타미라 공항
ATN,Namatanai,-3.66958625,152.4381498,ATN,나마타나이
ATO,Ohio University,39.333332,-82.1,ATO,오하이오대학교
ATP,Airstrip,-3.166667,142.28334,ATP,활주로
ATQ,Sri Guru Ram Dass Jee International Airport,31.70858515,74.80044741,ATQ,스리 구루 람 다스 지 국제공항
ATR,Mouakchott,20.499443,-13.046389,ATR,무악쇼트
ATS,Artesia,32.8525152,-104.4664108,ATS,아르테시아
ATT,Atmautluak Airport,60.8631043,-162.2734311,ATT,아트마우틀루크 공항
ATU,Casco Cove,52.825832,173.17278,ATU,카스코 코브
ATV,Ati,13.2398308,18.31542056,ATV,아티
ATW,Outagamie County Regional Airport,44.25659495,-88.52169599,ATW,아우타가미 카운티 지역공항
ATX,Atbasar,51.8517097,68.3655586,ATX,아트바사르
ATY,Watertown Airport,44.9126175,-97.14845997,ATY,워터타운 공항
ATZ,Assiut Airport,27.033333,31,ATZ,아시우트 공항
AUA,Reina Beatrix International Airport,12.502222,-70.013885,AUA,레이나 베아트릭스 국제공항
AUB,Itauba Airport,-11.878603,-55.581735,AUB,이타우바 공항
AUC,Arauca Airport,7.06803755,-70.73450091,AUC,아라우카 공항
AUD,Augustus Downs,-18.5149994,139.878006,AUD,아우구스투스 다운스
AUE,Abu Rudeis,28.90059595,33.20053351,AUE,아부 루데이스
AUF,Auxerre Branches,47.8498956,3.498388157,AUF,오세르 지점
AUG,Augusta Airport,44.318054,-69.79667,AUG,오거스타 공항
AUH,Abu Dhabi International Airport,24.43189915,54.64197668,AUH,아부다비 국제공항
AUI,Aua Island,-1.4610532,143.0644713,AUI,아우아 아일랜드
AUJ,Ambunti,-4.21583375,142.8233559,AUJ,암분티
AUK,Alakanuk Airport,62.689167,-164.61084,AUK,알라카누크 공항
AUL,Aur Island,8.1452799,171.1730042,AUL,아우르섬
AUM,Austin,43.666668,-92.98333,AUM,오스틴
AUN,Auburn,38.9,-121.066666,AUN,오번
AUO,Auburn-Opelika,32.63333,-85.5,AUO,오번-오펠리카
AUP,Agaun,-9.983333,149.58333,AUP,아가운
AUQ,Hiva Oa Airport,-9.76667795,-139.0097149,AUQ,히바오아 공항
AUR,Aurillac Airport,44.8975,2.418056,AUR,오리야크 공항
AUS,Austin-Bergstrom International Airport,30.19348925,-97.66500964,AUS,오스틴-버그스트롬 국제공항
AUT,Atauro,-8.2435667,125.6066862,AUT,아타우로
AUU,Aurukun Mission,-13.166667,142.25,AUU,아우루쿤 미션
AUV,Aumo,-5.7278249,148.4458293,AUV,아우모
AUW,Municipal,44.923332,-89.623055,AUW,시립
AUX,Araguaina Airport,-7.2,-48.2,AUX,아라과이나 공항
AUY,Aneityum,-20.333332,169.66667,AUY,아니티움
AUZ,Municipal Airport,41.75,-88.316666,AUZ,시립공항
AVA,An Shun/Huang Guo Shu Airport,26.257221,105.87278,AVA,안순/황궈수 공항
AVB,Aviano,46.03136845,12.60204762,AVB,아비아노
AVG,Auvergne,-15.6852565,130.0083823,AVG,오베르뉴
AVI,Maximo Gomez,22.025,-78.79139,AVI,막시모 고메즈
AVK,Arvaikheer,46.2484762,102.8046924,AVK,아르바이헤르
AVL,Asheville Regional Airport,35.4364233,-82.54088095,AVL,애슈빌 지역공항
AVN,Avignon-Caumont Airport,43.9,4.9,AVN,아비뇽-코몽 공항
AVO,Municipal,27.6,-81.51667,AVO,시립
AVP,Wilkes-Barre/Scranton International Airport,41.33709205,-75.72257123,AVP,윌크스배러/스크랜턴 국제공항
AVR,Alverca,38.8833008,-9.0300999,AVR,알베르카
AVU,Avu Avu,-9.833333,160.38333,AVU,아부아부
AVV,Avalon Airport,-38.0415747,144.4722515,MEL,아발론 공항
AVW,Avra Valley,32.4113732,-111.2174879,TUS,아브라 밸리
AVX,Avalon Bay,33.341667,-118.31528,AVX,아발론 베이
AWA,Awassa,7.0643514,38.4910115,AWA,아와사
AWB,Awaba Airport,-8.016667,142.75,AWB,아와바 공항
AWD,Aniwa,-19.25,169.5,AWD,아니와
AWE,Alowe,-0.75,9.45,AWE,알로웨
AWK,Wake Island,19.28335215,166.633617,AWK,웨이크 아일랜드
AWM,Municipal,35.13333,-90.183334,AWM,시립
AWN,Alton Downs,-26.25,138.66667,AWN,앨턴 다운스
AWP,Austral Downs Airport,-20.4940024,137.7652929,AWP,오스트랄 다운스 공항
AWR,Awar,-4.124167,144.87029,AWR,아와르
AWZ,Ahwaz Airport,31.3375148,48.76183763,AWZ,아와즈 공항
AXA,Clayton J. Lloyd International Airport,18.2054832,-63.05608188,AXA,클레이튼 J. 로이드 국제공항
AXB,Alexandria Bay,44.2525,-75.90139,AXB,알렉산드리아 베이
AXC,Aramac,-22.95728355,145.2483286,AXC,아람어
AXD,Demokritos Airport,40.85631045,25.9553406,AXD,데모크리토스 공항
AXE,Xanxere,-26.8749455,-52.37339732,AXE,크산세레
AXF,Alxa Left Banner,38.7476971,105.586124,AXF,Alxa 왼쪽 배너
AXG,Algona,43.0778426,-94.2714143,AXG,알고나
AXJ,Amakusa,32.4822166,130.15846,AXJ,아마쿠사
AXK,Ataq,13.866667,46.3,AXK,아탁
AXL,Alexandria,-19.083332,136.66667,AXL,알렉산드리아
AXM,El Eden Airport,4.452869,-75.76804,AXM,엘 에덴 공항
AXN,Alexandria,45.86722,-95.394165,AXN,알렉산드리아
AXO,Bandar Udara Pantar,-8.244694,124.219278,AXO,반다르 우다라 판타르
AXP,Springpoint Airport,22.45,-73.96667,AXP,스프링포인트 공항
AXR,Arutua Airport,-15.25,-146.75,AXR,아루투아 공항
AXS,Altus/Quartz Mountain Regional Airport,34.69881,-99.33847,LTS,알투스/쿼츠 마운틴 지역공항
AXT,Akita Airport,39.614616,140.2193503,AXT,아키타 공항
AXU,Axum Airport,14.120833,38.716667,AXU,악숨 공항
AXV,Neil Armstrong,40.566666,-84.2,AXV,닐 암스트롱
AXX,Angel Fire,36.4202498,-105.2910646,AXX,엔젤 파이어
AYA,Ayapel,8.3,-75.15,AYA,아야펠
AYC,Ayacucho,8.6021333,-73.6131384,AYC,아야쿠초
AYD,Alroy Downs,-19.3,135.95,AYD,알로이 다운스
AYE,AAF Heliport,42.55,-71.6,AYE,AAF 헬리포트
AYG,Yaguara,1.533333,-73.933334,AYG,야구아라
AYI,Yari,-0.333333,-72.333336,AYI,야리
AYJ,Maharishi Valmiki International Airport,26.748034,82.150781,AYJ,마하리시 발미키 국제공항
AYK,Arkalyk,50.3151662,66.94696205,AYK,아르칼릭
AYL,Anthony Lagoon,-18.0197941,135.5420203,AYL,앤서니 라군
AYM,Yas Island SPB,24.467,54.6103,AUH,야스 아일랜드 SPB
AYN,Anyang Airport,36.13225015,114.3410297,AYN,안양공항
AYO,Ayolas,-27.36826105,-56.85414431,AYO,아욜라스
AYP,Yanamilla Airport,-13.197222,-74.24722,AYP,야나밀라 공항
AYQ,Connellan Airport,-25.18184745,130.9757678,AYQ,코넬란 공항
AYR,Ayr,-19.5942228,147.3270922,AYR,에어
AYS,Ware County,31.24847785,-82.39377481,AYS,웨어 카운티
AYT,Antalya Airport,36.89994245,30.79819145,AYT,안탈리아 공항
AYU,Aiyura,-6.3366412,145.9029898,AYU,아이유라
AYW,Ayawasi,-1.2,132.5,AYW,아야와시
AYX,Gerardo P챕rez Pinedo,-10.72845785,-73.76907296,AYX,헤라르도 페레즈 피네도
AYY,Arugam Bay SPB,6.86,81.82388889,AYY,아루감 베이 SPB
AYZ,Zahns,40.666668,-73.416664,AYZ,잔스
AZA,Phoenix-Mesa Gateway Airport,33.30591455,-111.6526441,PHX,피닉스-메사 게이트웨이 공항
AZB,Amazon Bay,-10.15,148.81667,AZB,아마존 베이
AZD,Yazd Airport,31.903603,54.283264,AZD,야즈드 공항
AZG,Apatzingan,19.068056,-102.352776,AZG,아파칭간
AZH,Azamgarh Airport,26.153333,83.118333,AZH,아잠가르 공항
AZI,Bateen,24.419167,54.451668,AUH,바틴
AZJ,Zhenjiang Dalu,31.91226656,119.7839565,AZJ,전장 달루
AZL,Fazenda Tucunare Airport,-13.465528,-58.866935,AZL,파젠다 투쿠나레 공항
AZN,Andizhan Airport,40.7265439,72.29303829,AZN,안디잔 공항
AZO,Kalamazoo Battle Creek International Airport,42.2307865,-85.55104192,AZO,캘러머주 배틀 크리크 국제공항
AZP,Atizapan,19.416668,-99.1,MEX,아티사판
AZR,Adrar Airport,27.883333,-0.283333,AZR,아드라르 공항
AZS,Saman찼 El Catey International,19.270555,-69.736946,AZS,사마나 엘 카테이 인터내셔널
AZT,Zapatoca,6.866667,-73.25,AZT,사파토카
AZZ,Ambriz,-7.883333,13.15,AZZ,암브리즈
BAA,Bialla,-5.33150125,151.0096216,BAA,비알라
BAB,Beale AFB,39.15,-121.583336,MYV,빌 AFB
BAC,Barranca De Upia,4.5728352,-72.9754852,BAC,바랑카 데 우피아
BAD,Barksdale AFB,32.5,-93.666664,SHV,박스데일 AFB
BAE,Barcelonnette,44.3871772,6.608085546,BAE,바르셀로네트
BAF,Barnes,42.13333,-72.75,BAF,반스
BAG,Loakan,16.375076,120.6192708,BAG,로아칸
BAH,Bahrain International Airport,26.2697012,50.63290321,BAH,바레인 국제공항
BAI,Buenos Aires,9.166667,-83.333336,BAI,부에노스 아이레스
BAJ,Bali,-4.833333,149.13333,BAJ,발리
BAL,Batman Airport,37.916668,41.083332,BAL,배트맨 공항
BAM,Lander County,40.63333,-116.933334,BAM,랜더 카운티
BAN,Basongo,-4.3151816,20.4142387,BAN,바송고
BAO,Udorn,17.385,102.79278,BAO,우돈
BAP,Baibara,-10.333333,149.75,BAP,바이바라
BAQ,E Cortissoz Airport,10.886398,-74.77618,BAQ,E 코르티소스 공항
BAR,Baker AAF,55.333332,-133.6,BAR,베이커 AAF
BAS,Balalae,-6.9911804,155.8855471,BAS,발랄래
BAT,Airport Chafei Amsei,-20.55,-48.55,BAT,공항 차페이 암세이
BAU,Bauru Airport,-22.3450535,-49.05328146,BRI,바우루 공항
BAV,Baotou Airport,40.56068065,109.9999814,BAV,바오터우 공항
BAW,Biawonque,-0.666667,146.35,BAW,비아원케
BAX,Barnaul Gherman Titov International Airport,53.3635611,83.55045362,BAX,바르나울 게르만 티토프 국제공항
BAY,Baia Mare,47.65,23.466667,BAY,바이아 마레
BAZ,Barbelos,-0.966944,-62.933613,BAZ,바르벨로스
BBA,Teniente Vidal Airport,-45.916668,-71.695,BBA,테니엔테 비달 공항
BBB,Benson Municipal Airport,45.331944,-95.650556,BBB,벤슨 시립공항
BBC,Bay City,28.983334,-95.96667,BBC,베이시티
BBD,Curtis Field,31.133333,-99.333336,BBD,커티스 필드
BBF,Burlington,42.5,-71.183334,BBF,벌링턴
BBG,Butaritari,3.166667,172.75,BBG,부타리타리
BBH,Barth,54.33965175,12.71262634,BBH,바르트
BBI,Biju Patnaik International Airport,20.25229545,85.81348472,BBI,비주 파트나익 국제공항
BBJ,Bitburg Air Base,49.946165,6.565966669,BBJ,비트부르크 공군기지
BBK,Kasane Airport,-17.83045705,25.16436706,BBK,카사네 공항
BBL,Ballera Airport,27.408333,141.808333,BBL,발레라 공항
BBM,Battambang,13.0956576,103.2269494,BBM,바탐방
BBN,Bario Airport,3.683333,115.46667,BBN,바리오 공항
BBO,Berbera,10.419444,45.00639,BBO,베르베라
BBP,Bembridge,50.6791033,-1.109752386,BBP,벰브리지
BBQ,Barbuda,17.555555,-61.765,BBQ,바부다
BBR,Baillif,16.01391785,-61.74331842,BBR,바이리프
BBS,Blackbushe,51.3228059,-0.8405417,BBS,블랙부시
BBT,Berberati,4.2228219,15.78601959,BBT,베르베라티어
BBU,Baneasa,44.50029205,26.09022832,BUH,바네아사
BBV,Hkg,4.666667,-6.95,BBV,홍콩
BBW,Broken Bow,41.4,-99.63333,BBW,부러진 활
BBX,Wings Field,40.136665,-75.2675,BBX,윙스 필드
BBY,Bambari,5.84805,20.6470806,BBY,밤바리
BBZ,Zambezi,-13.5365145,23.10703183,BBZ,잠베지어
BCA,Baracoa,20.35,-74.5,BCA,바라코아
BCB,Virginia Tech,37.20921745,-80.41201042,BCB,버지니아 공대
BCC,Bear Creek,63.571667,-156.144167,BCC,베어 크릭
BCD,Bacolod-Silay International Airport,10.644815,122.93359,BCD,바콜로드 실라이 국제공항
BCE,Bryce,37.70752165,-112.1501399,BCE,브라이스
BCF,Bouca,6.75,18.416668,BCF,부카
BCG,Bemichi,6.55,-58.55,BCG,베미치
BCH,Cakung International,-8.491667,126.39972,BCH,카쿵 인터내셔널
BCI,Barcaldine Airport,-23.56550565,145.3020629,BCI,바르칼딘 공항
BCJ,Baca Grande,39,-106,BCJ,바카 그란데
BCK,Bolwarra,-17.3882999,144.1690063,BCK,볼와라
BCL,Barra Colorado,10.833333,-82.96667,BCL,바라 콜로라도
BCM,Bacau Airport,46.59861,26.881945,BCM,바코 공항
BCN,Barcelona-El Prat Airport,41.29694395,2.079047363,BCN,바르셀로나 엘프라트 공항
BCO,Jinka,5.783333,36.55,BCO,진카
BCP,Bambu,-5.85,146.48334,BCP,밤부
BCQ,Brack,27.683332,14.216667,BCQ,브랙
BCR,Boca Do Acre,-8.75,-67.38333,BCR,보카두에이커
BCS,Southern Seaplane,29.966667,-90,BCS,남부 수상비행기
BCT,Boca Raton Airport,26.35,-80.083336,BCT,보카레이턴 공항
BCU,Bauchi,10.366667,9.8,BCU,바우치
BCV,Belmopan,17.269211,-88.7754724,BCV,벨모판
BCW,Benguera Island,-21.884722,35.425,BCW,벵게라섬
BCX,Beloreck,53.933334,58.333332,BCX,벨로렉
BCY,Bulchi,6.216667,36.666668,BCY,불치
BCZ,Bickerton Island,-13.783333,137.8,BCZ,비커튼 섬
BDA,L.F. Wade International Airport,32.3616236,-64.66575514,BDA,LF 웨이드 국제공항
BDB,Bundaberg Airport,-24.90353975,152.3196524,BDB,번다버그 공항
BDC,Barra Do Corda,-5.466667,-45.266666,BDC,바라 도 코르다
BDD,Badu Island,-10.14901485,142.1730593,BDD,바두섬
BDE,Baudette,48.7232658,-94.6044845,BDE,보데트
BDF,Rinkenberger,41.183334,-89.65,BDF,린켄베르거
BDG,Blanding,37.581466,-109.480294,BDG,블랜딩
BDH,Bandar Lengeh,26.53298565,54.82975543,BDH,반다르랭게
BDI,Bird Island,-3.7242605,55.20523768,BDI,새섬
BDJ,Syamsudin Noor International Airport,-3.44028625,114.7565086,BDJ,시암수딘 누르 국제공항
BDK,Bondoukou,8.0151654,-2.763268016,BDK,봉두쿠
BDL,Bradley International Airport,41.9405835,-72.68501994,BDL,브래들리 국제공항
BDM,Bandirma,40.31775555,27.98138696,BDM,반디르마
BDN,Talhar,24.633333,68.9,BDN,탈하르
BDO,Husein Sastranegara Airport,-6.89951685,107.5760475,BDO,후세인 사스트라네가라 공항
BDP,Bhadrapur Airport,26.5707714,88.07832041,BDP,바드라푸르 공항
BDQ,Vadodara Airport,22.33681675,73.22706887,BDQ,바도다라 공항
BDR,Igor I. Sikorsky Memorial,41.16271485,-73.12617523,BDR,이고르 I. 시코르스키 기념관
BDS,Brindisi - Salento Airport,40.661605,17.94857755,BDS,브린디시 - 살렌토 공항
BDT,Gbadolite,4.083333,22.45,BDT,그바돌라이트
BDU,Bardufoss Airport,69.05482565,18.54066538,BDU,바두포스 공항
BDV,Moba,-7,29.8,BDV,모바
BDW,Bedford Downs,-17.2872764,127.464074,BDW,베드포드 다운스
BDX,Broadus,45.466667,-105.36667,BDX,브로더스
BDY,State,43.11667,-124.416664,BDY,상태
BDZ,Baindoung,-6.34697415,146.9418623,BDZ,바인둥
BEA,Bereina,-8.65,146.48334,BEA,베레이나
BEB,Benbecula Airport,57.4807797,-7.365274894,BEB,벤베쿠라 공항
BEC,Beech,37.683334,-97.333336,ICT,너도밤나무
BED,Hanscom Field,42.46795055,-71.28436914,BED,한스컴필드
BEE,Beagle Bay,-16.966667,122.666664,BEE,비글 베이
BEF,Bluefields,11.9910456,-83.77366038,BEF,블루필즈
BEG,Belgrad Nikola Tesla Airport,44.81827305,20.30236961,BEG,베오그라드 니콜라 테슬라 공항
BEH,Ross Field,42.127777,-86.42833,BEH,로스 필드
BEI,Beica,9.39096515,34.51957774,BEI,베이카
BEJ,Kalimarau Airport,2.166667,117.7,BEJ,칼리마라우 공항
BEK,Bareli,26.216667,81.23333,BEK,바렐리
BEL,Val De Cans International Airport,-1.3798578,-48.4796461,BEL,발데칸 국제공항
BEM,Beni Mellal Airport,32.40255875,-6.315766147,BEM,베니멜랄 공항
BEN,Benina International,32.1011324,20.27332791,BEN,베니나 인터내셔널
BEO,Belmont,-33.033333,151.66667,NTL,벨몬트
BEP,Bellary,15.16220255,76.88153286,BEP,벨라리
BEQ,Honington,52.34289805,0.770808943,BEQ,호닝턴
BER,Berlin Brandenburg Airport,52.3976851,13.5367764,BER,베를린 브란덴부르크 공항
BES,Brest Bretagne Airport,48.4428384,-4.4197626,BES,브레스트 브르타뉴 공항
BET,Bethel Airport,60.78043015,-161.8402619,BET,베델 공항
BEU,Bedourie,-24.23,139.445,BEU,베두리
BEV,Beer Sheba,31.25,34.8,BEV,베르셰바
BEW,Beira Airport,-19.79742665,34.91058303,BEW,베이라 공항
BEX,Benson RAF Station,51.63333,-1.083333,BEX,벤슨 RAF 역
BEY,Beirut-Rafic Hariri International Airport,33.8180749,35.49080523,BEY,베이루트-라픽 하리리 국제공항
BEZ,Beru,-1.35472,176.0070038,BEZ,베루
BFA,Bahia Negra,-20.2311349,-58.17057022,BFA,바이아 네그라
BFB,Blue Fox Bay,58.183334,-152.13333,BFB,블루 폭스 베이
BFC,Bloomfield,-15.8736,145.3300018,BFC,블룸필드
BFD,Bradford Airport,41.802223,-78.63944,BFD,브래드포드 공항
BFE,Bielefeld,52.016666,8.55,BFE,빌레펠트
BFF,Western Nebraska Regional Airport,41.87685875,-103.5949185,BFF,서부 네브래스카 지역 공항
BFG,Bullfrog Basin,37.5458239,-110.713199,BFG,황소개구리 분지
BFH,Bacacheri,-25.4048327,-49.23165095,BFH,바카체리
BFI,Boeing Field International Airport,47.5371,-122.3037,SEA,보잉 필드 국제공항
BFJ,Bijie Airport,27.300278,105.301389,BFJ,비제 공항
BFK,Buffalo Municipal Airport,39.733334,-104.86667,DEN,버팔로 시립공항
BFL,Meadows Field Airport,35.4372678,-119.0592237,BFL,메도우즈 필드 공항
BFM,Mobile Downtown Airport,30.683332,-88.23333,MOB,모바일 다운타운 공항
BFN,Bram Fischer International Airport,-29.0922444,26.29668178,BFN,브람 피셔 국제공항
BFO,Buffalo Range,-21.009167,31.579166,BFO,버팔로 산맥
BFP,Beaver Falls,40.766666,-80.4,BFP,비버 폭포
BFQ,Bahia Pinas,7.583333,-78.166664,BFQ,바이아 피나스
BFR,Virgil I Grissom Municipalcipal,38.86667,-86.48333,BFR,버질 I 그리섬 무니시팔시팔
BFS,Belfast International Airport,54.6616469,-6.2161746,BFS,벨파스트 국제공항
BFT,County,32.41083,-80.635,BFT,군
BFU,Bengbu,32.95,117.333336,BFU,방부
BFV,Buri Ram Airport,15.2251616,103.2477758,BFV,부리람 공항
BFW,Sidi Belabbes,35.171665,-0.589444,BFW,시디 벨라베스
BFX,Bafoussam,5.483333,10.4,BFX,바푸삼
BFY,Bengbu Tenghu Airport,33.166,117.057,BFY,방부 텅후 공항
BGA,Palonegro International Airport,7.12665205,-73.18298397,BGA,팔로네그로 국제공항
BGB,Booue,-0.1072205,11.94279,BGB,부에
BGC,Braganca Airport,41.816666,-6.75,BGC,브라간카 공항
BGD,Borger,35.6887659,-101.394019,BGD,보거
BGE,Decatur County,30.916668,-84.583336,BGE,디케이터 카운티
BGF,Bangui Airport,4.396111,18.520279,BGF,방기 공항
BGG,Bingol Airport,38.8605985,40.59243578,BGG,빙골 공항
BGH,Abbaye,16.633333,-14.2,BGH,수도원
BGI,Grantley Adams International Airport,13.0772788,-59.48794598,BGI,그랜틀리 아담스 국제공항
BGJ,Borgarfjordur Eystri,66,-14.5,BGJ,보르가르피요르두르 에스트리
BGK,Big Creek,16.5201288,-88.40988534,BGK,빅 크릭
BGL,Baglung,28.2127945,83.6656309,BGL,바그룽
BGM,Greater Binghamton Airport,42.2106484,-75.98155093,BGM,그레이터 빙엄턴 공항
BGN,Belaya Gora Airport,68.538056,146.185833,BGN,벨라야 고라 공항
BGO,Bergen Airport,60.29619625,5.219901375,BGO,베르겐 공항
BGP,Bongo,-1.65,13.433333,BGP,봉고
BGQ,Big Lake,61.5352778,-149.8119444,BGQ,빅 레이크
BGR,Bangor International Airport,44.8072619,-68.81941486,BGR,뱅거 국제공항
BGS,Webb AFB,32.385555,-101.48333,HCA,웹 AFB
BGT,Bagdad,34.5932537,-113.1728287,BGT,바그다드
BGU,Bangassou,4.78594655,22.78014567,BGU,방가수
BGV,Bento Goncalves,-29.166668,-51.516666,BGV,벤투 곤칼베스
BGW,Baghdad International Airport,33.2638222,44.2327947,BGW,바그다드 국제공항
BGX,Airport Cmdt. Gustavo Kraemer,-31.39099725,-54.11283816,BGX,공항사령부 구스타보 크레이머
BGY,Orio al Serio International Airport,45.67095925,9.698763471,MIL,오리오 알 세리오 국제공항
BGZ,Braga,41.55,-8.433333,BGZ,브라가
BHA,Bahia De Caraquez,-0.6,-80.416664,BHA,바이아 데 카라케스
BHB,Bar Harbor Airport,44.44889,-68.361664,BHB,바 하버 공항
BHC,Bhurban Heliport,33.925,73.433334,BHC,부르반 헬기장
BHD,George Best Belfast City Airport,54.62032935,-5.869819381,BFS,조지 베스트 벨파스트 시티 공항
BHE,Woodbourne Airport,-41.5172616,173.8693538,BHE,우드본 공항
BHF,Bahia Cupica,6.6940746,-77.4946873,BHF,바이아 쿠피카
BHG,Brus Laguna,15.7357862,-84.5428876,BHG,브루스 라구나
BHH,Bisha Airport,19.994509,42.618484,BHH,비샤 공항
BHI,Comandante Airport,-38.730556,-62.150555,BHI,코만단테 공항
BHJ,Rudra Mata Airport,23.2756868,69.66374549,BHJ,루드라 마타 공항
BHK,Bukhara Airport,39.77495605,64.48141101,BHK,부하라 공항
BHL,Bahia Angeles,28.95,-113.55,BHL,바이아 앙헬레스
BHM,Birmingham-Shuttlesworth International Airport,33.5635078,-86.75154127,BHM,버밍엄-셔틀스워스 국제공항
BHN,Beihan,14.7819996,45.7201004,BHN,베이한
BHO,Raja Bhoj Airport,23.284761,77.34177,BHO,라자 보지 공항
BHP,Bhojpur,27.1473179,87.05143681,BHP,보즈푸르
BHQ,Broken Hill Airport,-32.00625895,141.4708936,BHQ,브로큰힐 공항
BHR,Bharatpur Airport,27.676911,84.42889698,BHR,바랏푸르 공항
BHS,Raglan Airport,-33.41387,149.65518,BHS,라글란 공항
BHT,Brighton Downs,-23.3684564,141.5790509,BHT,브라이튼 다운스
BHU,Bhavnagar Airport,21.7528163,72.18697803,BHU,바브나가르 공항
BHV,Bahawalpur Airport,29.4,71.683334,BHV,바하왈푸르 공항
BHW,Bhagatanwala Airport,32.0561,72.9484,SGI,바가탄왈라 공항
BHX,Birmingham International Airport,52.45252,-1.733256,BHX,버밍엄 국제공항
BHY,Beihai Fucheng Airport,21.5391801,109.2917396,BHY,베이하이 푸청 공항
BIA,Bastia Poretta Airport,42.55466885,9.481946623,BIA,바스티아 포레타 공항
BIB,Baidoa,3.1035313,43.63118544,BIB,바이도아
BIC,A챕rodrome de Belle 횓le,47.3255706,-3.199652228,BIC,비행장 드 벨일
BID,Block Island,41.16823955,-71.57745157,BID,블록아일랜드
BIE,Beatrice,40.2996235,-96.74932562,BIE,베아트리체
BIF,Biggs AAF,31.75,-106.48333,ELP,빅스 AAF
BIG,Intermediate Field,64.06778,-145.73277,BIG,중급분야
BIH,Bishop,37.373333,-118.365,BIH,주교
BII,Enyu Airfield,11.5225,165.5650024,BII,엔유비행장
BIJ,Biliau,-5.583333,146.2,BIJ,빌리아우
BIK,Mokmer Airport,-1.18846795,136.1066715,BIK,모크머 공항
BIL,Billings Logan International Airport,45.80923485,-108.5476752,BIL,빌링스 로건 국제공항
BIM,Bimini International Airport,25.7,-79.28333,BIM,비미니 국제공항
BIN,Bamiyan,34.8093654,67.81759461,BIN,바미안
BIO,Bilbao Airport,43.3017207,-2.919129659,BIO,빌바오 공항
BIP,Bulimba,-16.15,143.75,BIP,불림바
BIQ,Biarritz - Anglet - Bayonne Airport,43.472416,-1.531242,BIQ,비아리츠 - 앙글레 - 바욘 공항
BIR,Biratnagar Airport,26.434723,87.28333,BIR,비라트나가르 공항
BIS,Bismarck Airport,46.7732585,-100.7471637,BIS,비스마르크 공항
BIT,Baitadi,29,80.5,BIT,바이타디
BIU,Bildudalur,65.833336,-23.983334,BIU,빌두달루르
BIV,Bria,6.5277801,21.9894009,BIV,브리아
BIW,Billiluna,-19.566668,127.166664,BIW,빌리루나
BIX,Keesler AFB,30.4094294,-88.91886497,BIX,키슬러 AFB
BIY,Bisho,-32.89788125,27.27945577,BIY,비쇼
BIZ,Bimin,-5.2893777,142.0140946,BIZ,비민
BJA,Bejaia Airport,36.7129239,5.073719492,BJA,베자이아 공항
BJB,Bojnord,37.49078845,57.30289282,BJB,보노르드
BJC,Jeffco,39.9121533,-105.1071572,BJC,제프코
BJD,Bakkafjordur,66.066666,-14.75,BJD,바카피요르두르
BJE,Baleela,11.19957815,28.5225696,BJE,발레라
BJF,Batsfjord Airport,70.5993908,29.68847702,BJF,바츠피요르드 공항
BJG,Bolaang,-0.95,122.1,BJG,볼랑
BJH,Bajhang,29.55,81.25,BJH,바장
BJI,Bemidji Airport,47.5101068,-94.92982435,BJI,베미지 공항
BJJ,Wayne County,40.8,-81.933334,BJJ,웨인 카운티
BJK,Benjina,-6.06609595,134.2739716,BJK,벤지나
BJL,Yundum International Airport,13.336338,-16.64950257,BJL,윤둠 국제공항
BJM,Bujumbura Melchior Ndadaye International Airport,-3.32,29.32,BJM,부줌부라 멜키오르 은다다예 국제공항
BJN,Bajone,-17.183332,38.083332,BJN,바욘
BJO,Bermejo,-22.866667,-64.333336,BJO,베르메호
BJP,Braganca Paulista,-22.9795982,-46.53679707,BJP,브라간카 파울리스타
BJQ,Bahja Airport,19.87305556,56.06777778,BJQ,바자 공항
BJR,Bahar Dar Airport,11.603292,37.32324,BJR,바하르 다르 공항
BJT,Bentota River,6.483333,79.98333,BJT,벤토타강
BJU,Bajura Airport,29.366667,81.333336,BJU,바주라 공항
BJV,Milas-Bodrum Airport,37.24952535,27.67212809,BJV,밀라스-보드룸 공항
BJW,Bajawa Soa Airport,-8.766667,120.98333,BJW,바자와 소아 공항
BJX,Guanajuato International Airport,20.9934103,-101.4812008,BJX,과나후아토 국제공항
BJY,Batajnica,44.9372722,20.24982459,BEG,바타이니차
BJZ,Badajoz Airport,38.891666,-6.82,BJZ,바다호스 공항
BKA,Bykovo,55.433334,37.966667,MOW,비코보
BKB,Bikaner,28.016666,73.3,BKB,비카네르
BKC,Buckland Airport,65.9815616,-161.1492319,BKC,버클랜드 공항
BKD,Stephens County,32.7183179,-98.8921334,BKD,스티븐스 카운티
BKE,Baker,44.838333,-117.81,BKE,빵 굽는 사람
BKF,Lake Brooks SPB,58.6,-156.23334,BKF,레이크 브룩스 SPB
BKG,Branson,36.52780005,-93.19781658,BKG,브랜슨
BKH,Barking Sands PMRF,21.966667,-159.71666,BKH,바킹 샌즈 PMRF
BKI,Kota Kinabalu International Airport,5.9336121,116.0497893,BKI,코타키나발루 국제공항
BKJ,Boke,10.966667,-14.283333,BKJ,보케
BKK,Suvarnabhumi Airport,13.68187665,100.7485803,BKK,수완나품 공항
BKL,Burke Lakefront Airport,41.5188169,-81.68113241,CLE,버크 레이크프론트 공항
BKM,Bakalalan,3.966667,115.61667,BKM,바카라란
BKN,Balkanabat Airport,39.48291995,54.36155209,BKN,발카나바트 공항
BKO,Bamako-Senou International Airport,12.5353304,-7.94876504,BKO,바마코-세노우 국제공항
BKP,Barkly Downs,-20.4905978,138.4727656,BKP,바클리 다운스
BKQ,Blackall Airport,-24.42789765,145.4362532,BKQ,블랙콜 공항
BKR,Bokoro,12.416667,17.233334,BKR,보코로
BKS,Fatmawati Soekarno Airport,-3.8623723,102.3376894,BKS,파트마와티 수카르노 공항
BKT,Blackstone AAF,37.066666,-78,BKT,블랙스톤 AAF
BKU,Betioky,-23.7329998,44.3889999,BKU,베티오키
BKV,Bailing Airport,41.656944,110.3125,BKV,바이링 공항
BKW,Beckley Airport,37.7945921,-81.12226647,BKW,베클리 공항
BKX,Brookings,44.303333,-96.81111,BKX,브루킹스
BKY,Kavumu,-2.3173469,28.8101889,BKY,카부무
BKZ,Bukoba Airport,-1.33063155,31.82048419,BKZ,부코바 공항
BLA,General Jose Antonio Anzoategui International Airport,10.10716495,-64.68773383,BLA,헤네랄 호세 안토니오 안소아테기 국제공항
BLB,Panama Pacifico Airport,8.973056,-79.5575,BLB,파나마 파시피코 공항
BLC,Bamenda,5.897222,10.031667,BLC,바멘다
BLD,Boulder City,35.983334,-114.833336,LAS,볼더 시티
BLE,Dala Airport,60.42165855,15.51485581,BLE,달라 공항
BLF,Princeton,37.295834,-81.20805,BLF,프린스턴
BLG,Belaga,2.7,113.78333,BLG,벨라가
BLH,Blythe,33.6206368,-114.7191041,BLH,브라이스
BLI,Bellingham International Airport,48.79368955,-122.5359569,BLI,벨링햄 국제공항
BLJ,Batna Airport,35.566666,6.183333,BLJ,바트나 공항
BLK,Blackpool Airport,53.77322885,-3.037190088,BLK,블랙풀 공항
BLL,Billund Airport,55.740737,9.160391884,BLL,빌룬트 공항
BLM,Monmouth Executive Airport,40.183334,-74.01667,BLM,몬머스 이그제큐티브 공항
BLN,Benalla,-36.55227455,146.0099132,BLN,베날라
BLO,Blonduos,65.6435941,-20.28873091,BLO,블론듀스
BLP,Bellavista,-16.583332,-69.416664,BLP,벨라비스타
BLQ,Guglielmo Marconi Airport,44.529266,11.293289,BLQ,굴리엘모 마르코니 공항
BLR,Kempegowda International Airport,13.196697,77.70758656,BLR,켐페고우다 국제공항
BLS,Bollon,-28.0507728,147.4808484,BLS,볼롱
BLT,Blackwater,-23.6022957,148.8078454,BLT,블랙워터
BLU,Blue Canyon,39.2743038,-120.7095718,BLU,블루 캐년
BLV,Belleville,38.65178,-89.85183,BLV,벨빌
BLW,Bellows Field,21.333332,-157.7,BLW,벨로우즈 필드
BLX,Belluno,46.1663423,12.24894408,BLX,벨루노
BLY,Belmullet,54.2227106,-10.0309688,BLY,벨물렛
BLZ,Chileka Airport,-15.67607545,34.96706138,BLZ,칠레카 공항
BMA,Bromma Airport,59.3546192,17.94474046,STO,브롬마 공항
BMB,Bumba,2.18408715,22.47795269,BMB,붐바
BMC,Brigham City,41.5347533,-112.0604949,BMC,브리검시티
BMD,Belo,-20.733334,44.05,BMD,벨로
BME,Broome Airport,-17.9492125,122.2306943,BME,브룸 공항
BMF,Bakouma,5.6947471,22.801065,BMF,바쿠마
BMG,Bloomington,39.14,-86.61472,BMG,블루밍턴
BMH,Bomai,-6.416667,144.58333,BMH,보마이
BMI,Central Illinois Regional Airport,40.4733557,-88.91480265,BMI,센트럴 일리노이 지역공항
BMJ,Baramita,6.75,-60,BMJ,바라미타
BMK,Borkum,53.59522935,6.709057878,BMK,보르쿰
BML,Berlin Municipal Airport,44.57479855,-71.17547495,BML,베를린 시립공항
BMM,Bitam,2.0762485,11.49374437,BMM,비탐
BMN,Bamerny,37.1,43.266666,BMN,바메르니
BMO,Bhamo,24.2708581,97.24735139,BMO,바모
BMP,Brampton Island,-20.783333,149.23334,BMP,브램턴 섬
BMQ,Bamburi,-4.5,39.833332,BMQ,밤부리
BMR,Baltrum,53.7248567,7.3732427,BMR,발트룸
BMS,Brumado,-14.233333,-41.63333,BMS,브루마도
BMT,Beaumont Municipalcipal,30.083332,-94.1,BPT,보몬트 지방자치단체
BMU,Sultan Muhammad Salahuddin Airport,-8.5,118.916664,BMU,술탄 무하마드 살라후딘 공항
BMV,Phung-Duc Airport,12.666667,108.05,BMV,풍득 공항
BMW,Bordj Badji Mokhtar,21.316668,1.033333,BMW,보르지 바디 모크타르
BMX,Big Mountain,59.3622374,-155.2515943,BMX,빅마운틴
BMY,Belep Island,-19.75,163.66667,BMY,벨렙섬
BMZ,Bamu,-7.8469898,143.241454,BMZ,바무
BNA,Nashville International Airport,36.11958985,-86.68308703,BNA,내슈빌 국제공항
BNB,Boende,-0.233056,20.87,BNB,보엔데
BNC,Beni,0.566667,29.466667,BNC,베니
BND,Bandar Abbas International Airport,27.22203645,56.3785686,BND,반다르 압바스 국제공항
BNE,Brisbane Airport,-27.3874138,153.1214765,BNE,브리즈번 공항
BNF,Warm Spring Bay SPB,57,-135,BNF,웜 스프링 베이 SPB
BNG,Banning,33.9231279,-116.85053,BNG,금지
BNH,Barnes,41.766666,-72.683334,HFD,반스
BNI,Benin City Airport,6.3171425,5.599650574,BNI,베냉시티 공항
BNK,Ballina Byron Airport,-28.83744645,153.556436,BNK,발리나 바이런 공항
BNL,Barnwell Regional,33.2604761,-81.383034,BNL,반웰 지역
BNM,Bodinumu,-9.116667,147.61667,BNM,보디누무
BNN,Bronnoysund Airport Bronnoy,65.4595318,12.2109254,BNN,브로노이순 공항 브로노이
BNO,Burns,43.5914,-118.9554,BNO,화상
BNP,Bannu,33,70.666664,BNP,반누
BNQ,Baganga,13.25,121.05,BNQ,바강가
BNR,Banfora,10.666667,-4.666667,BNR,반포라
BNS,Barinas,8.6128189,-70.21733396,BNS,바리나스
BNT,Bundi,-5.75,145.45,BNT,번디
BNU,Blumenau,-27,-49,BNU,블루메나우
BNV,Boana,-6.425,146.81667,BNV,보아나
BNW,Boone,42.066666,-93.88333,BNW,분
BNX,Banja Luka Airport,44.94291375,17.29638599,BNX,바냐루카 공항
BNY,Bellona,-11.30254015,159.7991243,BNY,벨로나
BNZ,Banz,-5.808333,144.61139,BNZ,반츠
BOA,Boma,-5.866667,13.066667,BOA,보마
BOB,Motu Mute Airport,-16.44433535,-151.7525442,BOB,모투 무트 공항
BOC,Bocas Del Toro,9.3404691,-82.25481516,BOC,보카스델토로
BOD,Bordeaux Airport,44.83102,-0.70217,BOD,보르도 공항
BOE,Boundji,-1.033333,15.383333,BOE,바운드지
BOF,Bolling AFB,38.9,-77.03333,WAS,볼링 AFB
BOG,El Dorado International Airport,4.70289475,-74.14874992,BOG,엘도라도 국제공항
BOH,Bournemouth Airport,50.78234165,-1.838333038,BOH,본머스 공항
BOI,Boise Air Terminal (Gowen Field),43.569263,-116.22193,BOI,보이시 에어 터미널(고웬 필드)
BOJ,Bourgas Airport,42.416668,27.283333,BOJ,부르가스 공항
BOK,Brookings State,42.05,-124.28333,BOK,브루킹스 주
BOL,Ballykelly,55,-7,BOL,발리켈리
BOM,Chhatrapati Shivaji International Airport,19.0901312,72.86370319,BOM,차트라파티 시바지 국제공항
BON,Flamingo International Airport,12.133403,-68.27687,BON,플라밍고 국제공항
BOO,Bodo Airport,67.264386,14.34774894,BOO,보도 공항
BOP,Bouar,6,15.666667,BOP,부아르
BOQ,Boku,-6.533333,155.35,BOQ,보쿠
BOR,Bokeo International Airport,20.323889,100.165556,BOR,보케오 국제공항
BOS,Logan International Airport,42.3629737,-71.01350668,BOS,로건 국제공항
BOT,Boset,-7.233333,141.08333,BOT,보셋
BOU,Bourges,47.15,2.416667,BOU,부르주
BOV,Boang,-3.366667,153.33333,BOV,보아
BOW,Bartow,27.9,-81.833336,BOW,바토우
BOX,Borroloola,-16.07668335,136.3031001,BOX,보롤룰라
BOY,Borgo,11.163611,-4.324444,BOY,보르고
BOZ,Bozoum,6.416667,16.583332,BOZ,보조움
BPA,Grumman,40.733334,-73.48333,BPA,그루먼
BPB,Boridi,-9.133333,147.53334,BPB,보리디
BPC,Bamenda,5.916667,10.15,BPC,바멘다
BPD,Bapi,-7.7435242,147.0207696,BPD,바피
BPE,Qinhuangdao Beidaihe Airport,24,96,SHP,친황다오 베이다이허 공항
BPF,Batuna Aerodrome,-8.55,158.11667,BPF,바투나 비행장
BPG,Barra Do Garcas,-15.8606725,-52.39006674,BPG,바라 도 가르카스
BPH,Bislig,8.1938557,126.3194827,BPH,비슬릭
BPI,Big Piney-marbleton,42.533333,-110.11667,BPI,빅 파이니 마블턴
BPK,Biangabip,-5.52687665,141.7449407,BPK,비앙가빕
BPL,Bole Airport,44.904232,82.024185,BPL,볼레 공항
BPM,Begumpet,17.4540314,78.46967295,HYD,베굼페트
BPN,Sultan Aji Muhamad Sulaiman Airport,-1.260623,116.90082,BPN,술탄 아지 무하마드 술라이만 공항
BPS,Porto Seguro Airport,-16.4389835,-39.08336724,BPS,포르토 세구로 공항
BPT,Jefferson County Airport,29.950832,-94.02,BPT,제퍼슨 카운티 공항
BPU,Beppu,33.25,131.5,BPU,벳푸
BPX,Bangda Airport,30.5511304,97.10917357,BPX,방다 공항
BPY,Besalampy,-16.7452789,44.4803872,BPY,베살람피
BQA,Baler,15,121.083336,BQA,베일러
BQB,Bussellton Regional Airport,-33.716667,115.25,BQB,버셀턴 지역공항
BQE,Bubaque,11.3033822,-15.83910953,BQE,부바크
BQG,Bogorodskoye,52.3825564,140.4500274,BQG,보고로드스코예
BQH,Biggin Hill,51.333332,0.033333,LON,비긴힐
BQI,Bagani,-18.1182302,21.62397621,BQI,바가니
BQJ,Batagay,67.6462041,134.7024568,BQJ,바타가이
BQK,Glynco Jetport,31.166668,-81.48333,SSI,글린코 제트포트
BQL,Boulia,-22.91260715,139.9031815,BQL,불리아
BQN,Rafael Hernandez Airport,18.49346055,-67.13421587,BQN,라파엘 에르난데스 공항
BQO,Bouna,9.2548838,-3.033317862,BQO,보우나
BQQ,Barra,-11.083333,-43.13333,BQQ,바라
BQS,Blagoveschensk Airport,50.4266217,127.4096845,BQS,블라고베셴스크 공항
BQT,Brest Airport,52.1088082,23.89508448,BQT,브레스트 공항
BQU,J. F. Mitchell,12.98875915,-61.26112889,BQU,J. F. 미첼
BQV,Bartlett SPB,58.416668,-135.73334,GST,바틀렛 SPB
BQW,Balgo Hills,-20.183332,127.8,BQW,발고힐스
BRA,Barreiras Airport,-12.0794806,-45.00970535,BRA,바레이라스 공항
BRB,Barreirinhas,-2.7574806,-42.80350775,BRB,바레이리냐스
BRC,San Carlos de Bariloche International Airport,-41.145966,-71.16109,BRC,산카를로스데바릴로체 국제공항
BRD,Crow Wing County Airport,46.40507465,-94.12827993,BRD,크로우윙 카운티 공항
BRE,Bremen Airport,53.0453419,8.789641689,BRE,브레멘 공항
BRF,Bradford,53.8,-1.75,LBA,브래드포드
BRG,Municipal,37.11667,-82.833336,BRG,시립
BRH,Brahman,-5.7,145.36667,BRH,브라만
BRI,Palese Airport,41.1534,16.7656,BRI,팔레세 공항
BRJ,Bright,-36.7,146.93333,BRJ,밝은
BRK,Bourke,-30.083332,145.93333,BRK,버크
BRL,Burlington Airport,40.78611,-91.12334,BRL,벌링턴 공항
BRM,Barquisimeto Airport,10.04359305,-69.3561638,BRM,바르키시메토 공항
BRN,Bern Airport,46.91221345,7.498597417,BRN,베른 공항
BRO,South Padre Island International Airport,25.90889,-97.42333,BRO,사우스 파드레 아일랜드 국제공항
BRP,Biaru,-7.533333,146.7,BRP,비아루
BRQ,Turany Airport,49.1582606,16.69080359,BRQ,투라니 공항
BRR,North Bay Airport,57.023335,-7.440278,BRR,노스베이 공항
BRS,Bristol Airport,51.38296995,-2.718623772,BRS,브리스톨 공항
BRT,Bathurst Island,-11.76157225,130.6137936,BRT,배서스트 섬
BRU,Brussels Airport,50.9010343,4.478626971,BRU,브뤼셀 공항
BRV,Bremerhaven,53.75,8.916667,BRV,브레머하펜
BRW,Wiley Post-Will Rogers Memorial Airport,71.28620995,-156.7750025,BRW,와일리 포스트-윌 로저스 메모리얼 공항
BRX,Barahona,18.25182335,-71.12337032,BRX,바라오나
BRY,Samuels Field,37.81677845,-85.49825864,BRY,사무엘스 필드
BRZ,Borotou,8.766667,-7.5,BRZ,보로투
BSA,Bossaso,11.2778277,49.14299133,BSA,보사소
BSB,Brasilia International Airport,-15.87174755,-47.9117217,BSB,브라질리아 국제공항
BSC,Bahia Solano,6.2030693,-77.39524355,BSC,바이아 솔라노
BSD,Baoshan Airport,25.05160185,99.16459538,BSD,바오산 공항
BSE,Sematan,1.81320515,109.7644101,BSE,세마탄
BSF,Bradshaw AAF,21.383333,-157.75,BSF,브래드쇼 AAF
BSG,Bata Airport,1.9093582,9.807491016,BSG,바타 공항
BSH,Brighton,50.816666,-0.116667,BSH,브라이튼
BSI,Blairsville,40.45,-79.28333,BSI,블레어스빌
BSJ,Bairnsdale,-37.833332,147.63333,BSJ,베언즈데일
BSK,Biskra Airport,34.7931774,5.734029338,BSK,비스크라 공항
BSL,EuroAirport Swiss,47.59961,7.532604,EAP,유로에어포트 스위스
BSM,Bishe-kola,36.6556143,52.3555333,BSM,비셰콜라
BSN,Bossangoa,6.583333,17.5,BSN,보상고아
BSO,Basco Airport,20.4514501,121.9807799,BSO,바스코 공항
BSP,Bensbach,-8.333333,141.08333,BSP,벤스바흐
BSQ,Bisbee Municipal Airport,31.3639903,-109.883128,BSQ,비스비 시립공항
BSR,Basra International Airport,30.555555,47.79139,BSR,바스라 국제공항
BSS,Balsas,-7.516667,-46.05,BSS,발사스
BST,Bost,31.55956085,64.36796841,BST,보스트
BSU,Basankusu,1.2254494,19.788836,BSU,바산쿠스
BSV,Besakoa,-15.672487,47.06196244,BSV,베사코아
BSW,Boswell Bay,60.4223364,-146.1445823,BSW,보스웰 베이
BSX,Bassein,16.8136014,94.77532425,BSX,바세인
BSY,Bardera,2.329012,42.3115383,BSY,바르데라
BSZ,Bartletts,58.233612,-157.35028,BSZ,바틀렛츠
BTA,Yaound챕,4.540833,13.7275,BTA,야운데
BTB,Betou,3.05,18.5,BTB,베투
BTC,Batticaloa,7.70607375,81.6752024,BTC,바티칼로아
BTD,Brunette Downs,-18.63357715,135.9409543,BTD,갈색 머리 다운
BTE,Bonthe,7,-12.008333,BTE,봉테
BTF,Salt Lake Skypark,40.88333,-111.88333,BTF,솔트레이크 스카이파크
BTG,Batangafo,7.416667,18.333332,BTG,바탕가포
BTH,Hang Nadim International Airport,1.1219929,104.1157081,BTH,항나딤 국제공항
BTI,Barter Island Airport,70.1339763,-143.5825254,BTI,바터 아일랜드 공항
BTJ,Sultan Iskandar Muda International Airport,5.52946565,95.41908324,BTJ,술탄 이스칸다르 무다 국제공항
BTK,Bratsk Airport,56.36667,101.816666,BTK,브라츠크 공항
BTL,WK Kellogg Regional,42.37278,-85.26481,BTL,WK 켈로그 지역
BTM,Butte Airport,45.95111,-112.49389,BTM,뷰트 공항
BTN,Bennettsville,34.61667,-79.683334,BTN,베넷츠빌
BTO,Botopasie,4.25,-55.45,BTO,보토파시
BTP,Butler County - Kenny Scholter Field,40.85,-79.916664,BTP,버틀러 카운티 ? 케니 숄터 필드
BTQ,Butare,-2.595473,29.736554,BTQ,부타레
BTR,Baton Rouge Metropolitan Airport,30.5319743,-91.15037754,BTR,배턴루지 메트로폴리탄 공항
BTS,Bratislava Airport,48.17229025,17.21349736,BTS,브라티슬라바 공항
BTT,Bettles,66.9157348,-151.5282119,BTT,베틀스
BTU,Bintulu Airport,3.171772,113.04346,BTU,빈툴루 공항
BTV,Burlington International Airport,44.4728965,-73.15146311,BTV,벌링턴 국제공항
BTW,Batu Licin,-3,116,BTW,바투 리신
BTX,Betoota,-25.6916043,140.7444657,BTX,베투타
BTY,Beatty,36.9,-116.76667,BTY,비티
BTZ,Yala Betong International Airport,5.785833,101.1475,BTZ,얄라 베통 국제공항
BUA,Buka,-5.4221082,154.6732872,BUA,부카
BUB,Municipal,41.783333,-99.13333,BUB,시립
BUC,Burketown,-17.7455334,139.5387049,BUC,버크타운
BUD,Budapest Ferenc Liszt International Airport,47.43527295,19.25351057,BUD,부다페스트 프란츠 리스트 국제공항
BUF,Buffalo Niagara International Airport,42.9402016,-78.7307523,BUF,버팔로 나이아가라 국제공항
BUG,Gen V Deslandes,-12.606389,13.405556,BUG,5세대 데슬란데스
BUI,Bokondini,-2,133.58333,BUI,보콘디니
BUJ,Ain Eddis,35.166668,4.15,BUJ,아인 에디스
BUK,Albuq,15.833333,43.766666,BUK,알부크
BUL,Bulolo,-7.2157428,146.6508935,BUL,불롤로
BUM,Butler,38.266666,-94.333336,BUM,집사
BUN,Buenaventura,3.825,-76.995834,BUN,부에나벤투라
BUO,Burao,9.5225,45.55417,BUO,부라오
BUP,Bhatinda Airport,30.166668,74.96667,BUP,바틴다 공항
BUQ,Bulawayo Airport,-20.0133425,28.60861373,BUQ,불라와요 공항
BUR,Bob Hope Airport,34.2031703,-118.3591724,BUR,밥 호프 공항
BUS,Batumi Airport,41.6068476,41.6111627,BUS,바투미 공항
BUT,Bathpalathang Airport,27.562385,90.74767722,BUT,바스팔라탕 공항
BUU,Muara Bungo Airport,-1.5425,102.182778,BUU,무아라 분고 공항
BUV,Bella Union,-30.333332,-57.083332,BUV,벨라 유니온
BUW,Baubau Airport,-5.466667,122.63333,BUW,바우바우 공항
BUX,Bunia,1.5666587,30.21727087,BUX,부니아
BUY,Bunbury,-33.316666,115.63333,BUY,번버리
BUZ,Bushehr Airport,28.9572989,50.8229405,BUZ,부쉐르 공항
BVA,Beauvais-Tille Airport,49.459488,2.110815,PAR,보베-틸 공항
BVB,Boa Vista Airport,2.833333,-60.666668,BVB,보아비스타 공항
BVC,Rabil Airport,16.083332,-22.833332,BVC,라빌 공항
BVD,Sea Port,53.733334,-166.31667,BVD,바다 항구
BVE,Laroche Airport,45.166668,1.533333,BVE,라로쉬 공항
BVF,Dama,-17,178.5,BVF,다마
BVG,Berlevag Airport,70.871648,29.03289001,BVG,베르레바그 공항
BVH,Vilhena Airport,-12.6940825,-60.09875397,BVH,빌헤나 공항
BVI,Birdsville,-25.89117585,139.3451788,BVI,버즈빌
BVJ,Bovanenkovo Airport,70.3115293,68.34863157,BVJ,보바넨코보 공항
BVK,Huacaraje,-13.55,-63.75,BVK,우아카라제
BVL,Baures,-13.583333,-63.583332,BVL,바우레스
BVM,Belmonte,-15.833333,-38.916668,BVM,벨몬테
BVO,Bartlesville,36.7671135,-96.00918689,BVO,바틀즈빌
BVP,Bolovip,-5.383333,141.7,BVP,볼로빕
BVR,Esperadinha,14.86370585,-24.74640907,BVR,에스페라디냐
BVS,Breves,-1.6351127,-50.44221729,BVS,브레베스
BVU,Beluga,61.1731772,-151.048254,BVU,벨루가
BVV,Burevestnik AFB,44.928646,147.61337,BVV,부레베스트니크 AFB
BVW,Batavia Downs,-12.65,143.21666,BVW,바타비아 다운스
BVX,Municipal,35.766666,-91.65,BVX,시립
BVY,Beverly Municipal Airport,42.55,-70.88333,BVY,비벌리 시립공항
BVZ,Beverley Springs,-15,124,BVZ,베벌리 스프링스
BWA,Bhairawa Airport,27.5050984,83.41217482,BWA,바이라와 공항
BWB,Barrow Island,-20.783333,115.416664,BWB,바로우섬
BWC,Brawley,32.99082965,-115.513929,BWC,브롤리
BWD,Brownwood,31.7932137,-98.956078,BWD,브라운우드
BWE,Braunschweig,52.266666,10.533333,BWE,브라운슈바이크
BWF,Walney Island,54.12797505,-3.261356388,BWF,월니 아일랜드
BWG,Warren County,36.962223,-86.42222,BWG,워렌 카운티
BWH,Butterworth,5.466667,100.3925,BWH,버터워스
BWI,Baltimore/Wash International Thurgood Marshall Airport,39.179527,-76.66894,BWI,볼티모어/워시 국제 서굿 마샬 공항
BWJ,Bawan,-6.4,146.9,BWJ,바완
BWK,Brac,43.283333,16.683332,BWK,브락
BWL,Blackwell,36.7958654,-97.3172658,BWL,블랙웰
BWM,Bowman,46.183334,-103.4,BWM,궁수
BWN,Brunei International Airport,4.9423855,114.9290823,BWN,브루나이 국제공항
BWO,Balakovo,51.8557388,47.74207318,BWO,발라코보
BWP,Bewani,-3.016667,141.15,BWP,베와니
BWQ,Brewarrina,-29.95,146.86667,BWQ,브루와리나
BWS,Blaine,48.966667,-122.833336,BWS,블레인
BWT,Burnie Wynyard Airport,-40.9987056,145.7358766,BWT,버니 윈야드 공항
BWU,Sydney Bankstown,-33.92424555,150.9900744,SYD,시드니 뱅스타운
BWW,Las Brujas Airport,22.62129974,-79.14720154,BWW,라스 브루하스 공항
BWX,Bandar Udara Internasional Banyuwangi,-8.3104548,114.3378646,BWX,반다르 우다라 국제 반유왕이
BXA,George R Carr,30.933332,-89.88333,BXA,조지 R 카
BXB,Babo,-2.52683255,133.4411824,BXB,바보
BXD,Bade,-7.166667,139.5,BXD,바데
BXE,Bakel,14.84636185,-12.46959728,BXE,베이클
BXF,Belburn,-17.545555,128.30779,BXF,벨번
BXG,Bendigo,-36.734722,144.30194,BXG,벤디고
BXH,Balhash,46.88333,75.01667,BXH,발하쉬
BXI,Boundiali,8.75,-6.5,BXI,경계알리
BXJ,Burundai,43.5,76.95,ALA,부룬다이
BXK,Buckeye Municipal,33.36667,-112.583336,BXK,벅아이 시립
BXL,Blue Lagoon,-16.75,179,BXL,블루라군
BXM,Batom,-4.116667,140.85,BXM,바톰
BXN,Imsik,37.13926395,27.6675979,BJV,임식
BXO,Buochs,46.9744444,8.3969444,BXO,부오크
BXP,Biala Podlaska,52.0073897,23.14742203,BXP,비알라 포들라스카
BXR,Bam,29.0890689,58.43984358,BXR,밤
BXS,Borrego Springs,33.343334,-116.32778,BXS,보레고 스프링스
BXT,Bontang,0.166667,117.5,BXT,본탕
BXU,Butuan Airport,8.95155605,125.478727,BXU,부투안 공항
BXV,Breiddalsvik,64.7895443,-14.0381909,BXV,브레이달스비크
BXW,Harun Thohir Airport,-5.72494045,112.6769307,BXW,하룬 토히르 공항
BXX,Borama International,9.966667,43.11667,BXX,보라마인터내셔널
BXY,Baikonur Krayniy Airport,45.623611,63.213889,BXY,바이코누르 크라니 공항
BXZ,Bunsil,-5.7239684,147.8666061,BXZ,분실
BYA,Boundary,64.0780556,-141.1133333,BYA,경계
BYB,Dibaa,25.583332,56.25,BYB,디바
BYC,Yacuiba,-21.9614105,-63.6518803,BYC,야쿠이바
BYD,Beidah,14.133333,46.55,BYD,베이다
BYF,Albert-Bray Airport,49.9715004,2.697659969,BYF,알베르-브레이 공항
BYG,Municipal,44.35,-106.7,BYG,시립
BYH,Arkansas International Airport,35.964444,-89.943889,BYH,아칸소 국제공항
BYI,Rupert,42.54139,-113.77417,BYI,루퍼트
BYJ,Beja International,38.078899,-7.9324,BYJ,베자 인터내셔널
BYK,Bouake,7.7404244,-5.068606829,BYK,부아케
BYL,Bella Yella,7.366667,-10,BYL,벨라 옐라
BYM,C.M. de Cespedes,20.383333,-76.65,BYM,CM 데 세스페데스
BYN,Bayankhongor,46.1,100.683334,BYN,바양홍고르
BYO,Bonito Airport,-21.24942965,-56.45190863,BYO,보니토 공항
BYP,Barimunya Airport,-22.67434605,119.1656029,BYP,바리무냐 공항
BYQ,Bunyu,3.583333,117.833336,BYQ,분류
BYR,Laeso Airport,57.27657225,10.99654593,BYR,라에소 공항
BYS,Bicycle Lake AAF,35.266666,-116.566666,BYS,자전거 호수 AAF
BYT,Bantry,51.6774381,-9.486540713,BYT,밴트리
BYU,Bindlacher-Berg,49.9858371,11.6397914,BYU,Bindlacher-Berg
BYV,Beira Lake SPB,6.927468,79.848358,CMB,베이라 레이크 SPB
BYW,Blakely Island,48.5,-123,BYW,블레이클리 아일랜드
BYX,Baniyala,-13.1977286,136.2265272,BYX,바니얄라
BZA,San Pedro,13.95,-84.6,BZA,산페드로
BZB,Bazaruto Island,-21.534721,35.49167,BZB,바자루토섬
BZC,Buzios,-22.77063,-41.96283749,BZC,부지오스
BZD,Balranald,-34.6240084,143.5764236,BZD,발라날드
BZE,Philip S.W. Goldson International Airport,17.5392339,-88.30483123,BZE,필립 S.W. 골드슨 국제공항
BZF,Benton Field,40.5737993,-122.4077,RDD,벤턴 필드
BZG,Bydgoszcz Airport,53.09767685,17.9787833,BZG,비드고슈치 공항
BZH,Bumi Hills,-16.8169994,28.3500004,BZH,부미힐스
BZI,Balikesir,39.6188965,27.92021925,BZI,발리케시르
BZJ,Bozhou Airport,33.56083333,115.9091667,BZJ,보저우 공항
BZK,Bryansk International Airport,53.266666,34.333332,BZK,브랸스크 국제공항
BZL,Barisal Airport,22.8039413,90.30062229,BZL,바리살 공항
BZM,Bemolanga Airport,-17.696,45.087,BZM,베모랑가 공항
BZN,Bozeman Yellowstone International Airport,45.78359005,-111.1569796,BZN,보즈먼 옐로스톤 국제공항
BZO,Bolzano,46.46006215,11.32608581,BZO,볼차노
BZP,Bizant,-15.216667,144.63333,BZP,비잔트
BZR,Beziers Vias Airport,43.324165,3.354444,BZR,베지에 비아스 공항
BZS,Buzzards Pt S,38.863335,-77.013336,WAS,독수리 Pt S
BZT,Eagle Air Park,34.89139608,-114.6160376,BZT,이글 에어파크
BZU,Buta,2.8,24.733334,BZU,부타
BZV,Maya Maya Airport,-4.2509559,15.25393833,BZV,마야 마야 공항
BZX,Bazhong Enyang Airport,31.7383789,106.6455156,BZX,바종 엔양 공항
BZY,Beltsy Airport,47.75,27.933332,BZY,벨트시 공항
BZZ,Raf Brize Norton,51.7511241,-1.579393301,BZZ,라프 브리즈 노턴
CAA,Catacamas,14.830556,-85.89445,CAA,카타카마
CAB,Cabinda Airport,-5.59803225,12.18821141,CAB,카빈다 공항
CAC,Cascavel Airport,-24.95,-53.466667,CAC,카스카벨 공항
CAD,Cadillac,44.27409395,-85.42711008,CAD,캐딜락
CAE,Columbia Metropolitan Airport,33.93886305,-81.11397151,CAE,콜롬비아 메트로폴리탄 공항
CAF,Carauari,-4.87146245,-66.89752106,CAF,카라우아리
CAG,Cagliari Elmas Airport,39.250583,9.057312581,CAG,칼리아리 엘마스 공항
CAH,Kamau,9.1768916,105.1746674,CAH,카마우
CAI,Cairo International Airport,30.1141148,31.42470226,CAI,카이로 국제공항
CAJ,Canaima,6.2295804,-62.85459148,CAJ,카나이마
CAK,Akron-Canton Airport,40.9152061,-81.43992419,CAK,애크런-캔턴 공항
CAL,Machrihanish Airport,55.4402788,-5.698378212,CAL,마크리하니쉬 공항
CAM,Camiri,-20.00638975,-63.52727345,CAM,카미리
CAN,Guangzhou Baiyun International Airport,23.3931854,113.3015079,CAN,광저우 바이윈 국제공항
CAO,Clayton,36.45,-103.183334,CAO,클레이튼
CAP,Cap Haitien Airport,19.7263503,-72.20026715,CAP,캡아이티엔 공항
CAQ,Caucasia,7.6,-75.25,CAQ,코카서스
CAR,Municipal,46.86667,-68.01667,CAR,시립
CAS,Anfa,33.559723,-7.663056,CAS,안파
CAT,Cascais Municipal Aerodrome,38.725,-9.35523,CAT,카스카이스 시립 비행장
CAU,Caruaru,-8.25,-35.916668,CAU,카루아루
CAV,Cazombo,-11.9,22.866667,CAV,카좀보
CAW,Bartolomeu Lisandro Airport,-21.75,-41.3,CAW,바르톨로메우 리산드로 공항
CAX,Carlisle,54.93846675,-2.808367405,CAX,칼라일
CAY,Felix Eboue Airport,4.82073745,-52.36305702,CAY,펠릭스 에보우에 공항
CAZ,Cobar,-31.53967255,145.7969561,CAZ,코바
CBA,Corner Bay,57.716667,-135.2,CBA,코너 베이
CBB,J Wilsterman Airport,-17.413954,-66.178894,CBB,J 윌스터만 공항
CBC,Cherrabun,-18.916668,125.55,CBC,체라분
CBD,Car Nicobar,9.156225,92.8215167,CBD,자동차 니코바르
CBE,Greater Cumberland Regional,39.6163954,-78.76221482,CBE,그레이터 컴벌랜드 지역
CBF,Municipal,41.266666,-95.86667,CBF,시립
CBG,Cambridge Airport,52.2,0.183333,CBG,캠브리지 공항
CBH,Leger,31.647778,-2.259722,CBH,레제
CBI,Cape Barren Island,-40.333332,148.16667,CBI,케이프 배런 아일랜드
CBJ,Cabo Rojo,17.9287957,-71.64183983,CBJ,카보 로조
CBK,Municipal,39.4,-101.05,CBK,시립
CBL,Ciudad Bolivar,8.128056,-63.5375,CBL,시우다드 볼리바르
CBM,Columbus AFB,33.5,-88.416664,UBS,콜럼버스 AFB
CBN,Penggung,-6.75,108.53333,CBN,펑궁
CBO,Awang Airport,7.1644949,124.21221,CBO,아왕 공항
CBP,Coimbra,40.2,-8.416667,CBP,코임브라
CBQ,Calabar Airport,4.9796045,8.349199913,CBQ,칼라바르 공항
CBR,Canberra Airport,-35.30287875,149.1918006,CBR,캔버라 공항
CBS,Oro Negro,10.383333,-71.416664,CBS,오로 흑인
CBT,Catumbela Airport,-12.481364,13.49388365,CBT,카툼벨라 공항
CBU,Cottbus,51.77028,14.299167,CBU,코트부스
CBV,Coban,15.4690225,-90.40646467,CBV,코반
CBW,Campo Mourao,-24.009449,-52.3569661,CBW,캄포 모우라오
CBX,Condobolin,-33.86667,148.25,CBX,콘도볼린
CBY,Canobie,-19.4788726,140.9273389,CBY,캐노비
CBZ,Cabin Creek,55.38333,-132.41667,CBZ,캐빈 크릭
CCA,Chaffee AFB,35.316666,-94.3,CCA,채피 AFB
CCB,Cable Airport,34.11242505,-117.6853958,CCB,케이블 공항
CCC,Jardines del Rey Airport,22.5125,-78.50833,CCC,하르디네스 델 레이 공항
CCD,Century City,34.066666,-118.26667,LAX,센추리 시티
CCE,Grand Case,18.05,-63.11667,SFG,그랜드 케이스
CCF,Carcassonne Airport,43.216667,2.316667,CCF,카르카손 공항
CCG,Crane County Airport,31.41140455,-102.3592957,CCG,크레인 카운티 공항
CCH,Chile Chico,-46.5823172,-71.68903562,CCH,칠레 치코
CCI,Concordia,-27.181389,-52.050556,CCI,콩코르디아
CCJ,Calicut International Airport,11.1363042,75.9541101,CCJ,캘리컷 국제공항
CCK,Cocos Islands Airport,-12.166667,96.916664,CCK,코코스 제도 공항
CCL,Chinchilla,-26.77207445,150.6199464,CCL,친칠라
CCM,Criciuma,-28.7,-49.36667,CCM,크리시우마
CCN,Chakcharan,34.533333,65.26667,CCN,착차란
CCO,Carimagua,4.56417,-71.3364,CCO,카리마과
CCP,Carriel Sur Airport,-36.77378175,-73.06006864,CCP,캐리엘 수르 공항
CCQ,Cachoeira,-12.6,-38.966667,CCQ,카코에이라
CCR,Buchanan Field,37.98926635,-122.0559381,CCR,뷰캐넌 필드
CCS,Simon Bolivar International Airport,10.60316215,-66.9966767,CCS,시몬 볼리바르 국제공항
CCT,Colonia Catriel,-39.5,-68.916664,CCT,콜로니아 카트리엘
CCU,Netaji Subhas Chandra Bose Airport,22.64531,88.43931,CCU,네타지 수바시 찬드라 보스 공항
CCV,Craig Cove,-16.2,167.5,CCV,크레이그 코브
CCW,Cowell,-33.63333,136.83333,CCW,코웰
CCX,Caceres,-16.066668,-57.7,CCX,카세레스
CCY,Municipal,43.066666,-92.683334,CCY,시립
CCZ,Chub Cay,25.4165151,-77.87826581,CCZ,처브 케이
CDA,Cooinda,-12.90328085,132.5330105,CDA,쿠인다
CDB,Cold Bay Airport,55.2014611,-162.7198441,CDB,콜드베이 공항
CDC,Cedar City Airport,37.7003,-113.0986,CDC,시더 시티 공항
CDD,Cauquira,15.32120995,-83.60406202,CDD,카우키라
CDE,Caledonia,8.333333,-77.55,CDE,칼레도니아
CDG,Charles de Gaulle Airport,49.0068908,2.571081969,PAR,샤를드골 공항
CDH,Harrell Field,33.583332,-92.833336,CDH,하렐 필드
CDI,Cachoeiro Itapemirim,-20.834752,-41.18558784,CDI,카초에이로 이타페미림
CDJ,Conceicao Do Araguaia,-8.233333,-49.283333,CDJ,콘세이카오 두 아라과이아
CDK,Lewis,29.133333,-83.03333,CDK,남자 이름
CDL,Candle,65.9092649,-161.9379772,CDL,양초
CDN,Woodward Field,34.2836534,-80.5654423,CDN,우드워드 필드
CDO,Cradock,-32.13333,25.6,CDO,크래독
CDP,Cuddapah,14.516667,78.78333,CDP,쿠다파
CDQ,Croydon,-18.3,142.25,CDQ,크로이든
CDR,Chadron Airport,42.83845375,-103.0960598,CDR,차드론 공항
CDS,Childress,37.416668,-100.21667,CDS,차일드레스
CDT,Castellon,40.2125456,0.070324047,CDT,카스테욘
CDU,Camden,-15.45,124.416664,CDU,캠든
CDV,Mudhole Smith Airport,60.4916501,-145.4737053,CDV,머드홀 스미스 공항
CDW,Caldwell Wright,40.833332,-74.26667,CDW,콜드웰 라이트
CDY,Cagayan De Sulu,7.0142323,118.495207,CDY,카가얀 데 술루
CDZ,Cadiz,36.533333,-6.3,CDZ,카디스
CEA,Cessna Aircraft Field,37.7,-97.333336,ICT,세스나 항공기 필드
CEB,Mactan-Cebu International Airport,10.310328,123.9792776,CEB,막탄-세부 국제공항
CEC,Del Norte County Regional Airport,41.7814506,-124.2380711,CEC,델 노르테 카운티 지역공항
CED,Ceduna Airport,-32.13056755,133.7073095,CED,세두나 공항
CEE,Cherepovets Airport,59.27783665,38.02065354,CEE,체레포베츠 공항
CEF,Westover ARB/Metropolitan,42.183376,-72.55383,CEF,웨스트오버 ARB/메트로폴리탄
CEG,Hawarden Airport,53.1796073,-2.97286601,CEG,하워든 공항
CEH,Chelinda,-10.5575399,33.7979301,CEH,첼린다
CEI,Chiang Rai International Airport,19.9480922,99.87945679,CEI,치앙라이 국제공항
CEK,Chelyabinsk International Airport,55.3015326,61.51286379,CEK,첼랴빈스크 국제공항
CEL,Cape Eleuthera,25.28389,-76.33083,CEL,케이프 엘레우테라
CEM,Central,65.5736598,-144.777902,CEM,본부
CEN,Ciudad Obregon Airport,27.39138415,-109.8312255,CEN,시우다드오브레곤 공항
CEO,Waco Kungo,9.308333,124.73055,CEO,와코 쿵고
CEP,Concepcion,-16.233334,-62.083332,CEP,콘셉시온
CEQ,Mandelieu,43.5479587,6.959813401,CEQ,만들리외
CER,Maupertus,49.6489524,-1.467614448,CER,마우페르투스
CES,Cessnock,-32.833332,151.35,CES,세스녹
CET,Le Pontreau,47.0818923,-0.876879653,CET,르 퐁트로
CEU,Oconee County,34.683334,-82.833336,CEU,오코니 카운티
CEV,Mettle Field,39.65,-85.13333,CEV,메틀 필드
CEW,Bob Sikes,30.7800302,-86.52231697,CEW,밥 사이크스
CEX,Chena Hot Springs,65.05,-146.16667,CEX,체나 온천
CEY,Calloway County,36.61667,-88.316666,CEY,캘러웨이 카운티
CEZ,Montezuma County Airport,37.3043669,-108.6276045,CEZ,몬테주마 카운티 공항
CFA,Coffee Point,58.216667,-157.5,CFA,커피 포인트
CFB,Cabo Frio International Airport,-22.92336095,-42.07658606,CFB,카보 프리우 국제공항
CFC,Cacador,-26.78834795,-50.94005827,CFC,카카도르
CFD,Coulter Field,30.666668,-96.36667,CFD,콜터 필드
CFE,Clermont-Ferrand Auvergne Airport,45.7850077,3.160475215,CFE,클레르몽페랑 오베르뉴 공항
CFF,Cafunfo,-8.7836103,17.9897003,CFF,카펀포
CFG,Jaime Gonzalez Airport,22.14945185,-80.41432509,CFG,하이메 곤잘레스 공항
CFH,Clifton Hills,-27,139,CFH,클리프턴 힐스
CFI,Camfield,-17.0216999,131.3269958,CFI,캠필드
CFK,Chlef International Airport,36.21306805,1.330621916,CFK,츨레프 국제공항
CFM,Conklin (Leismer) Airport,55.69372395,-111.2687884,CFM,콘클린(리스머) 공항
CFN,Donegal Airport,55.0445249,-8.340897118,CFN,도네갈 공항
CFO,Confreza,-10.633333,-51.566666,CFO,콘프레자
CFP,Carpentaria Downs,-18.783333,144.35,CFP,카펜타리아 다운스
CFQ,Creston Valley Airport,49.036945,-116.49834,CFQ,크레스턴 밸리 공항
CFR,Carpiquet Airport,49.183437,-0.459276,CFR,카르피케 공항
CFS,Coffs Harbour Airport,-30.32310515,153.1155706,CFS,코프스 하버 공항
CFT,Morenci,33.05,-109.3,CFT,모렌시
CFU,Ioannis Kapodistrias Airport,39.60190105,19.91403634,CFU,이오안니스 카포디스트리아스 공항
CFV,Municipal,37.033333,-95.61667,CFV,시립
CGA,Craig SPB,55.478382,-133.14616,CGA,크레이그 SPB
CGB,Marechal Rondon International Airport,-15.651725,-56.120266,CGB,마레샬 롱돈 국제공항
CGC,Cape Gloucester,-5.459167,148.51584,CGC,케이프 글로스터
CGD,Changde Airport,28.91920725,111.6379765,CGD,창더 공항
CGE,Cambridge,38.566666,-76.083336,CGE,케임브리지
CGF,Cuyahoga County,41.56406585,-81.48889341,CLE,쿠야호가 카운티
CGG,Casiguran,16.083332,122.01667,CGG,카시구란
CGH,Sao Paulo/Congonhas Airport,-23.626902,-46.659557,SAO,상파울루/콩고냐스 공항
CGI,Cape Girardeau Airport,37.22471585,-89.56800318,CGI,케이프 지라도 공항
CGJ,Chingola,-12.516667,27.883333,CGJ,칭골라
CGK,Soekarno-Hatta International Airport,-6.12389155,106.6565897,JKT,수카르노하타 국제공항
CGL,Chagual Airport,-7.797222,-77.651389,CGL,차구알 공항
CGM,Mambajao,18.9,121.916664,CGM,맘바자오
CGN,Cologne Bonn Airport,50.86780115,7.138887378,CGN,쾰른 본 공항
CGO,Zhengzhou Xinzheng Airport,34.5270534,113.8480142,CGO,정저우 신정 공항
CGP,Shah Amanat International Airport,22.2536779,91.81968167,CGP,샤 아마나트 국제공항
CGQ,Changchun Longjia International Airport,43.902836,125.217545,CGQ,창춘 룽자 국제공항
CGR,Campo Grande International Airport,-20.47157685,-54.68224625,CGR,캄포 그란데 국제공항
CGS,College Park,33.666668,-84.45,CGS,칼리지 파크
CGT,Chinguitti,20.45,-12.366667,CGT,Chinguitti
CGV,Caiguna,-32.2720286,125.4875656,CGV,카이구나
CGX,Merrill C Meigs,41.85889,-87.60833,CHI,메릴 C 메이그스
CGY,Laguindingan International Airport,8.407744,124.61157,CGY,라긴딩안 국제공항
CGZ,Municipal,32.88333,-111.75,CGZ,시립
CHA,Chattanooga Airport,35.03238355,-85.20167789,CHA,채터누가 공항
CHB,Chilas,35.4266262,74.0862815,CHB,칠라스
CHC,Christchurch International Airport,-43.4847958,172.5357543,CHC,크라이스트처치 국제공항
CHD,Mucuge Airport,-13.031667,-41.444444,CHD,무쿠지 공항
CHF,Jinhae,35.141201,128.6959991,CHF,진해
CHG,Chaoyang Airport,41.539062,120.4341465,CHG,차오양 공항
CHH,Chachapoyas,-6.2021601,-77.85583641,CHH,차차포야스
CHI,Chicago FSS,41.8781136,-87.6297982,CHI,시카고 금융감독원
CHJ,Chipinge,-20.2042729,32.6261647,CHJ,치핑게
CHK,Municipal,35.05,-97.96667,CHK,시립
CHL,Challis,44.5240137,-114.2171395,CHL,찰리스
CHM,Chimbote,-9.15039295,-78.52487439,CHM,침보테
CHN,Jeonju,37.016945,127.933334,CHN,전주
CHO,Charlottesville Albemarle Airport,38.1410056,-78.45246606,CHO,샬로츠빌 앨버말 공항
CHP,Circle Hot Springs,65.48552135,-144.6184009,CHP,서클 온천
CHQ,Chania International Airport,35.5296433,24.14800573,CHQ,하니아 국제공항
CHR,Chateauroux,46.816666,1.7,CHR,샤토루
CHS,Charleston International Airport,32.89929845,-80.03946503,CHS,찰스턴 국제공항
CHT,Karewa,-43.8,-176.35,CHT,카레와
CHU,Chuathbaluk Airport,61.5791016,-159.2160034,CHU,추아트발룩 공항
CHV,Chaves,41.733334,-7.466667,CHV,차베스
CHW,Jiuhuang,39.85,98.416664,CHW,지우황
CHX,Changuinola,9.45,-82.45,CHX,창귀놀라
CHY,Choiseul Bay Airport,-6.713787,156.39856,CHY,초이슬베이 공항
CHZ,State,42.583332,-121.86667,CHZ,상태
CIA,Ciampino-G. B. Pastine International Airport,41.799065,12.590987,ROM,치암피노-G. B. 파스틴 국제공항
CIB,Ap In The Sky,33.406113,-118.41389,AVX,앱인더스카이
CIC,Chico Municipal Airport,39.79397155,-121.8547755,CIC,치코 시립공항
CID,The Eastern Iowa Airport,41.889423,-91.7003,CID,이스턴 아이오와 공항
CIE,Collie,-33.36667,116.13333,CIE,콜리
CIF,Chifeng Airport,42.237392,118.91089,CIF,츠펑 공항
CIG,Craig-Moffat,40.4941717,-107.5241201,CIG,크레이그 모팻
CIH,Changzhi Airport,36.24789875,113.1252851,CIH,창즈 공항
CII,Cildir,47.90278,-112.312225,CII,실디르
CIJ,E. Beltram Airport,-11.026389,-68.75278,CIJ,E. 벨트램 공항
CIK,Chalkyitsik,66.6486145,-143.7299015,CIK,찰키칙
CIL,Melsing Creek,64.90833,-163.73334,CIL,멜싱 크릭
CIM,Cimitarra,6.483333,-74.11667,CIM,시미타라
CIN,Carroll,42.066666,-94.86667,CIN,캐롤
CIO,MCAL Lopez,-23.434444,-57.41833,CIO,MCAL 로페즈
CIP,Chipata,-13.5571088,32.58788876,CIP,치파타
CIQ,Chiquimula,14.85,-89.61667,CIQ,치키물라
CIR,Cairo,37,-89.183334,CIR,카이로
CIS,Canton Island,-2.833333,-171.66667,CIS,캔턴 아일랜드
CIT,Shymkent Airport,42.3,69.6,CIT,쉼켄트 공항
CIU,Chippewa County Airport,46.5,-84.35,SSM,치페와 카운티 공항
CIV,Chomley,55.216667,-132.21666,CIV,촘리
CIW,Canouan Island,12.7,-61.316666,CIW,캐누안 아일랜드
CIX,Cornel Ruiz Airport,-6.789722,-79.83222,CIX,코르넬 루이스 공항
CIY,Comiso Airport,36.99482985,14.60748815,CIY,코미소 공항
CIZ,Coari,-4.083333,-63.13333,CIZ,코아리
CJA,Cajamarca Airport,-7.13845645,-78.48983645,CJA,카하마르카 공항
CJB,Coimbatore International Airport,11.0312326,77.04169829,CJB,코임바토르 국제공항
CJC,El Loa Airport,-22.495085,-68.90843,CJC,엘로아 공항
CJD,Candilejas,1.333333,-74.26667,CJD,칸딜레하스
CJF,Coondewanna Airport,-22.9642029,118.8123347,CJF,쿤데와나 공항
CJH,Chilko Lake,51.333332,-124.083336,CJH,칠코 호수
CJJ,Cheongju Airport,36.7155563,127.4974643,CJJ,청주공항
CJL,Chitral,35.8877664,71.80073745,CJL,치트랄
CJM,Chumphon Airport,10.7082453,99.35410879,CJM,춤폰 공항
CJN,Gillespie Field,32.8,-116.96667,CJN,길레스피 필드
CJS,Abraham Gonzalez International Airport,31.63849375,-106.4280101,CJS,아브라함 곤잘레스 국제공항
CJT,Copalar,16.1740488,-92.04572634,CJT,코팔라
CJU,Jeju International Airport,33.50707105,126.4916441,CJU,제주국제공항
CJZ,Cajazeiras Airport,-6.882778,-38.615833,CJZ,카자제이라스 공항
CKA,Kegelman Af,36.75,-98.35,CKA,케겔만 아프
CKB,Benedum Airport,39.295555,-80.22945,CKB,베네덤 공항
CKC,Cherkassy,49.416668,32,CKC,체르카시
CKD,Crooked Creek,61.8670574,-158.1319634,CKD,크룩트 크릭
CKE,Clear Lake,38.934723,-122.62222,CKE,클리어 레이크
CKG,Chongqing Jiangbei International Airport,29.72606975,106.6498306,CKG,충칭 장베이 국제공항
CKH,Chokurdah Airport,70.63333,147.88333,CKH,초쿠르다 공항
CKI,Croker Island,-11.2,132.53334,CKI,크로커 아일랜드
CKK,Cherokee,36.5,-91.86667,CKK,체로키어
CKL,Chkalovsky,55.88121275,38.05293114,CKL,치칼로프스키
CKM,Fletcher Field,34.2,-90.583336,CKM,플레처 필드
CKN,Municipal,47.783333,-96.61667,CKN,시립
CKO,Cornelio Procopio,-23.116667,-50.666668,CKO,코르넬리오 프로코피오
CKR,Crane Island,48.5977402,-122.9976495,CKR,크레인 아일랜드
CKS,Carajas Airport,-6.11655575,-49.99774269,CKS,카라하스 공항
CKT,Sarakhs,36.5062305,61.05915046,CKT,사라크족
CKU,City,60.55,-145.75,CDV,도시
CKV,Outlaw Field,36.6195673,-87.41516535,CKV,무법자 필드
CKW,Christmas Creek Mine,52.430557,-108.74722,CKW,크리스마스 크릭 광산
CKX,Chicken,64.06816475,-141.9528389,CKX,닭
CKY,Conakry Airport,9.57655125,-13.61307576,CKY,코나크리 공항
CKZ,Canakkale Airport,40.13450605,26.42969039,CKZ,차낙칼레 공항
CLA,Comilla,23.4370218,91.1880657,CLA,코밀라
CLC,Metroport,29.556944,-95.1375,CLC,메트로포트
CLD,McClellan-Palomar Airport,33.12754605,-117.2814001,SAN,매클렐런-팔로마 공항
CLE,Cleveland Hopkins International Airport,41.40661855,-81.85120214,CLE,클리블랜드 홉킨스 국제공항
CLG,Coalinga,36.15,-120.35,CLG,콜린가
CLH,Coolah,-31.833332,149.7,CLH,쿨라
CLI,Clintonville,42.566666,-88.86667,CLI,클린턴빌
CLJ,Avram Iancu Cluj International Airport,46.78630485,23.68460819,CLJ,아브람 얀쿠 클루지 국제공항
CLK,Municipal,35.538055,-98.9325,CSM,시립
CLL,Easterwood Airport,30.58822845,-96.36411164,CLL,이스터우드 공항
CLM,Fairchild International,48.121883,-123.49511,CLM,페어차일드 인터내셔널
CLN,Carolina,-7.333333,-47.45,CLN,캐롤라이나
CLO,Alfonso B. Aragon Airport,3.543056,-76.381386,CLO,알폰소 B. 아라곤 공항
CLP,Clarks Point,58.8366014,-158.5299892,CLP,클락스 포인트
CLQ,Colima Airport,19.3,-103.65,CLQ,콜리마 공항
CLR,Calipatria,33.12804795,-115.5234093,CLR,칼리파트리아
CLS,Centralia,46.67389,-122.98111,CLS,센트레일리아
CLT,Charlotte Douglas International Airport,35.21074145,-80.94574352,CLT,샬럿 더글라스 국제공항
CLU,Columbus Municipal,39.216667,-85.916664,CLU,콜럼버스 시립
CLV,Caldas Novas,-17.7247899,-48.60817423,CLV,칼다스 노바스
CLW,Executive,27.976667,-82.75861,CLW,경영진
CLX,Clorinda,-25.333332,-57.666668,CLX,클로린다
CLY,Sainte Catherine Airport,42.52778,8.791667,CLY,세인트 캐서린 공항
CLZ,Calabozo,8.92472605,-67.41381708,CLZ,칼라보조
CMA,Cunnamulla,-28.03324135,145.6239117,CMA,커나물라
CMB,Bandaranaike International Airport,7.17970025,79.88399637,CMB,반다라나이케 국제공항
CMC,Camocim,-2.89492665,-40.85836649,CMC,카모심
CMD,Cootamundra,-34.6289957,148.0349871,CMD,쿠타문드라
CME,Ciudad Del Carmen Airport,18.6517384,-91.80046272,CME,시우다드 델 카르멘 공항
CMF,Chambery,45.6352153,5.881803393,CMF,샹베리
CMG,Corumba Internacional Airport,-19.0125785,-57.66975906,CMG,코룸바 국제공항
CMH,John Glenn Columbus International Airport,39.99705605,-82.89304061,CMH,존 글렌 콜럼버스 국제공항
CMI,Willard University Airport,40.0383172,-88.27156685,CMI,윌라드 대학교 공항
CMJ,Chi Mei,23.25,119.416664,CMJ,치 메이
CMK,Club Makokola,-14.3,35.05,CMK,클럽 마코콜라
CML,Camooweal,-19.933332,138.11667,CML,카무웰
CMM,Carmelita,17.4621687,-90.0538516,CMM,카멜리타
CMN,Mohamed V International Airport,33.36667,-7.586667,CAS,모하메드 5세 국제공항
CMO,Obbia,5.3582189,48.51558636,CMO,오비아
CMP,Campo Alegre,-9.8,-36.35,CMP,캄포 알레그레
CMQ,Clermont,-22.866667,147.5,CMQ,클레르몽
CMR,Colmar-houssen,48.10875115,7.359451563,CMR,콜마르-호센
CMS,Scusciuban,10.3138392,50.2032001,CMS,스쿠시우반
CMT,Cameta,-2.2,-49.5,CMT,카메타
CMU,Chimbu,-6.0242193,144.9704147,CMU,침부
CMV,Coromandel,-37,175.66667,CMV,코로만델
CMW,Ign Agramonte International Airport,21.418612,-77.849724,CMW,이그나 아그라몬테 국제공항
CMX,Houghton County Airport,47.16827015,-88.4865113,CMX,휴튼 카운티 공항
CMY,Fort Mccoy,44.03347,-90.77897,CMY,포트맥코이
CMZ,Caia,-17.85,35.4,CMZ,카이아
CNA,Cananea,31,-110.333336,CNA,카나네아
CNB,Coonamble,-30.98221055,148.3758498,CNB,쿠앰블
CNC,Coconut Island,-10.0500321,143.0707893,CNC,코코넛 섬
CND,Kogalniceanu Airport,44.3644284,28.48645083,CND,코갈니세아누 공항
CNE,Canon City,38.45,-105.23333,CNE,캐논시티
CNF,Tancredo Neves International Airport,-19.63339785,-43.96836942,BHZ,탕크레도 네베스 국제공항
CNG,Parvaud,45.683334,-0.333333,CNG,파르보
CNH,Municipal,43.38333,-72.333336,CNH,시립
CNI,Changhai,31.25,121.433334,CNI,창하이
CNJ,Cloncurry Airport,-20.668905,140.50851,CNJ,클론커리 공항
CNK,Blosser Municipal,39.548009,-97.6535883,CNK,블로서 시립
CNL,Sindal,57.50399995,10.22919063,CNL,신달
CNM,Cavern City Air Terminal,32.33739365,-104.2624049,CNM,캐번 시티 에어 터미널
CNN,Kannur International Airport,11.9172722,75.54478489,CNN,칸누르 국제공항
CNO,Chino,33.9739593,-117.6347929,CNO,치노
CNP,Neerlerit Inaat Airport,70.74137595,-22.64640255,CNP,니를레리트 이나트 공항
CNQ,Camba Punta Airport,-27.449722,-58.762222,CNQ,캄바 푼타 공항
CNR,Chanaral,-26.33254,-70.60733998,CNR,차나랄
CNS,Cairns Airport,-16.8777892,145.7515495,CNS,케언즈 공항
CNT,Charata,-27.2164,-61.2103,CNT,차라타
CNU,Martin Johnson,37.683334,-95.45,CNU,마틴 존슨
CNV,Canavieiras,-15.6649926,-38.9558886,CNV,카나비에라스
CNW,TSTC Waco Airport,31.916668,-97.13333,ACT,TSTC 와코 공항
CNX,Chiang Mai International Airport,18.76684265,98.96487809,CNX,치앙마이 국제공항
CNY,Canyonlands Field,38.7584059,-109.748812,CNY,캐년랜드 필드
CNZ,Cangamba,-11.5,19,CNZ,칸감바
COA,Columbia,38.03086945,-120.4143436,COA,콜롬비아
COB,Coolibah,-15.5482998,130.9620056,COB,쿨리바
COC,Concordia,-31.297222,-57.996387,COC,콩코르디아
COD,Yellowstone Regional Airport,44.52075195,-109.0218534,COD,옐로스톤 지역공항
COE,Coeur D'Alene,47.683334,-116.76667,COE,쾨르달렌
COF,Patrick AFB,28.35,-80.73333,COI,패트릭 AFB
COG,Mandinga,5.08333,-76.7,COG,만딩가
COH,Cooch Behar,26.32970445,89.46984059,COH,쿠치 베하르
COI,Merritt Island,28.316668,-80.6,COI,메리트 아일랜드
COJ,Coonabarabran,-31.337221,149.27194,COJ,쿠나바라브란
COK,Cochin International Airport,10.15448595,76.39248893,COK,코친 국제공항
COL,Isle Of Coll,56.61667,-6.616667,COL,아일 오브 콜
COM,Coleman,31.833332,-99.433334,COM,콜먼
CON,Concord,43.2,-71.53333,CON,일치
COO,Cotonou Airport,6.3577513,2.38590508,COO,코토누 공항
COP,Cooperstown - Westville Airport,42.7,-74.933334,COP,쿠퍼스타운 - 웨스트빌 공항
COQ,Choibalsan,48.13333,114.9,COQ,초이발산
COR,Ingeniero Aeronautico Ambrosio L.V. Taravella International Airport,-31.31548,-64.21377,COR,Ingeniero Aeronautico Ambrosio L.V. 타라벨라 국제공항
COS,Colorado Springs Airport,38.8004299,-104.7032771,COS,콜로라도 스프링스 공항
COT,Cotulla,28.4585165,-99.22114405,COT,코툴라
COU,Columbia Regional Airport,38.8168307,-92.2198931,COU,컬럼비아 지역 공항
COV,Covilha,40.283333,-7.5,COV,코빌라
COW,Coquimbo,-32.8,-70.63333,COW,코킴보
COY,Coolawanyah,-21.85,117.75,COY,쿨라와냐
COZ,Constanza,18.9,-70.71667,COZ,콘스탄자
CPA,A. Tubman,4.376667,-7.695556,CPA,A. 터브먼
CPB,Capurgana,8.632427,-77.35012187,CPB,카푸르가나
CPC,Chapelco Airport,-40.066666,-71.13333,CPC,차펠코 공항
CPD,Coober Pedy Airport,-29.0412822,134.7225859,CPD,쿠버페디 공항
CPE,Campeche International Airport,19.835,-90.509445,CPE,캄페체 국제공항
CPF,Cepu,-7.15,111.583336,CPF,세부
CPG,Carmen De Patagones,-40.833332,-63,CPG,카르멘 데 파타고네스
CPH,Copenhagen Airport,55.6091282,12.65098225,CPH,코펜하겐 공항
CPI,Cape Orford,-5.44872185,152.0807732,CPI,케이프 오포드
CPL,Chaparral,3.716667,-75.46667,CPL,챠파랄
CPM,Compton,33.894444,-118.24778,CPM,콤프턴
CPN,Cape Rodney,-10.179823,148.3790302,CPN,케이프 로드니
CPO,Chamonate Airport,-27.29892,-70.414406,CPO,샤모나테 공항
CPP,Coposa Airport,-20.75,-68.683333,CPP,코포사 공항
CPQ,International,-22.856462,-47.111595,CPQ,국제적인
CPR,Casper/Natrona County International Airport,42.9054165,-106.4645264,CPR,캐스퍼/내트로나 카운티 국제공항
CPS,St. Louis Downtown Airport,38.56948535,-90.15194783,STL,세인트루이스 다운타운 공항
CPT,Cape Town International Airport,-33.97184585,18.60211252,CPT,케이프타운 국제공항
CPU,Cururupu,-1.821111,-44.866944,CPU,쿠루푸
CPV,Joao Suassuna Airport,-7.27016065,-35.896097,CPV,주앙 수아수나 공항
CPX,Benjamin Rivera Noriega Airport,18.31337195,-65.30421884,CPX,벤저민 리베라 노리에가 공항
CQA,Canarana Airport,-13.57509615,-52.26867718,CQA,카나라나 공항
CQD,Shahre-kord,32.29394005,50.8398898,CQD,샤레코드
CQF,Calais,50.9607603,1.953363139,CQF,칼레
CQM,Ciudad Real Central,38.983334,-3.916667,CQM,시우다드 레알 센트럴
CQP,Cape Flattery,-18.2,147.5,CQP,케이프 플래터리
CQS,Costa Marques,-12.4249231,-64.25192288,CQS,코스타 마르케스
CQT,Caquetania,1.616667,-74.166664,CQT,카케타니아
CQW,CHERAW MUNI/LYNCH BELLINGER FLD AIRPORT,34.7129,-79.957,CQW,체라우 무니/린치 벨린저 FLD 공항
CRA,Craiova Airport,44.31880705,23.88910485,CRA,크라이오바 공항
CRB,Collarenebri,-29.524299,148.5768224,CRB,콜라네브리
CRC,Cartago,4.766667,-75.933334,CRC,카르타고
CRD,General E. Mosconi International Airport,-45.787224,-67.462776,CRD,제너럴 E. 모스코니 국제공항
CRE,Grand Strand Airport,33.8112835,-78.7233511,MYR,그랜드 스트랜드 공항
CRF,Carnot,4.983333,15.933333,CRF,카르노
CRG,Craig Municipal,30.5,-81.666664,JAX,크레이그 시립
CRH,Cherribah,-28,152.16667,CRH,체리바
CRI,Crooked Island Airport,22.7467692,-74.17689404,CRI,크룩드 아일랜드 공항
CRJ,Coorabie,-31.8943996,132.2960052,CRJ,쿠라비
CRK,Diosdado Macapagal International (Clark International),15.18716705,120.557465,CRK,디오스다도 마카파갈 인터내셔널(Clark International)
CRL,Charleroi Brussels South Airport,50.46363725,4.466173284,BRU,샤를루아 브뤼셀 남부 공항
CRM,National Airport,12.483333,124.583336,CRM,내셔널 공항
CRO,Corcoran,36.1028011,-119.5950519,CRO,코코란
CRP,Corpus Christi International Airport,27.7702374,-97.50657535,CRP,코퍼스 크리스티 국제공항
CRQ,Caravelas,-17.75,-39.25,CRQ,카라벨라스
CRR,Ceres,-29.916668,-61.833332,CRR,케레스
CRS,Corsicana,32.1,-96.46667,CRS,코르시카나
CRT,Municipal,33.13333,-91.96667,CRT,시립
CRU,Carriacou Island,12.476431,-61.47141187,CRU,카리아쿠 섬
CRV,Crotone,38.99735655,17.07972119,CRV,크로토네
CRW,Yeager Airport,38.37294755,-81.59421973,CRW,예거 공항
CRX,Roscoe Turner,34.9150009,-88.6035004,CRX,로스코 터너
CRY,Carlton Hill,-15.466667,128.61667,CRY,칼튼 힐
CRZ,Turkmenabad,39.083332,63.61667,CRZ,투르크메나바드
CSA,Isle Of Colonsay,56.0576378,-6.243205298,CSA,콜론세이 섬
CSB,Caransebes,45.41990835,22.24837132,CSB,카란세베스
CSC,Canas,10.766667,-85.48333,CSC,카나스
CSD,Cresswell Downs,-17.9465486,135.9131058,CSD,크레스웰 다운스
CSE,Crested Butte,38.86667,-106.98333,CSE,크레스티드 뷰트
CSF,Creil,49.2514148,2.514506526,CSF,크레일
CSG,Columbus Airport,32.466667,-84.98333,CSG,콜럼버스 공항
CSH,Solovky,65.02944,35.733334,CSH,솔로프키
CSI,Casino,-28.88072745,153.0589408,CSI,카지노
CSJ,Cape St Jacques,10.033333,111,CSJ,케이프 세인트 자크
CSK,Cap Skirring,12.39821835,-16.75089289,CSK,캡 스키링
CSL,O Sullivan Army Air Field,35.236668,-120.63917,CSL,오 설리번 육군 비행장
CSM,Sherman,35.539165,-96.933334,CSM,셔먼
CSN,Carson City,39.19450805,-119.7402154,CSN,카슨 시티
CSO,Cochstedt,51.8559128,11.41593573,CSO,코흐슈테트
CSP,Cape Spencer C G Heliport,58.19910049,-136.6390076,CSP,케이프 스펜서 C G 헬리포트
CSQ,Municipal,41.066666,-94.36667,CSQ,시립
CSR,Casuarito,5.833333,-68.133333,CSR,카수아리토
CSS,Cassilandia,-18.983334,-51.983334,CSS,카실란디아
CST,Castaway,-17.5,177.5,CST,표류자
CSU,Santa Cruz Do Sul,-29.68380235,-52.41103407,CSU,산타 크루즈 두 술
CSV,Memorial,35.95111,-85.084724,CSV,기념물
CSW,Colorado do Oeste,-13.019444,-61.168056,CSW,콜로라도 도 오에스테
CSX,Changsha Huanghua Airport,28.19066605,113.2199143,CSX,창사황화공항
CSY,Cheboksary Airport,56.13333,47.266666,CSY,체복사리 공항
CSZ,Brigadier Hector Ruiz,-37.433334,-61.88333,CSZ,준장 헥터 루이즈
CTA,Catania-Fontanarossa Airport,37.4672426,15.06756827,CTA,카타니아-폰타나로사 공항
CTB,Cut Bank,48.63333,-112.333336,CTB,컷 뱅크
CTC,Catamarca Airport,-28.448334,-65.779724,CTC,카타마르카 공항
CTD,Chitre,7.98858265,-80.40974542,CTD,치트레
CTE,Carti,8.833333,-80.833336,CTE,카르티
CTF,Coatepeque Airport,14.766667,-91.916664,CTF,코아테페크 공항
CTG,Rafael Nunez International Airport,10.44164285,-75.51305749,CTG,라파엘 누네즈 국제공항
CTH,Chestercounty Carlson,39.983334,-75.833336,CTH,체스터카운티 칼슨
CTI,Cuito Cuanavale,-15.15992705,19.15590806,CTI,쿠이토 쿠아나베일
CTK,Canton,43.3,-96.583336,CTK,주
CTL,Charleville Airport,-26.4132996,146.2619934,CTL,샤를빌 공항
CTM,Chetumal Airport,18.50736655,-88.33391305,CTM,체투말 공항
CTN,Cooktown Airport,-15.44428915,145.18491,CTN,쿡타운 공항
CTO,Peconic River,38.63333,-77.683334,CTO,피코닉 강
CTP,Carutapera,-1.250278,-46.0172234,CTP,카루타페라
CTQ,Do Palmar,-18.85,-50.1,CTQ,팔마르 도
CTR,Cattle Creek,-17.583332,131,CTR,캐틀 크릭
CTS,New Chitose Airport,42.786787,141.6829598,SPK,신치토세 공항
CTT,Le Castellet,43.2522806,5.782726669,CTT,르 카스텔레
CTU,Chengdu Shuangliu International Airport,30.5547767,103.9479447,CTU,청두 솽류 국제공항
CTV,Catoca Airport,-9.430985,20.311478,CTV,카토카 공항
CTW,Cottonwood,34.72952405,-112.0351047,CTW,미루나무
CTX,Cortland,42.5925704,-76.2143742,CTX,코틀랜드
CTY,Cross City,29.63640735,-83.10488329,CTY,크로스 시티
CTZ,Sampson County,34.9758159,-78.3636912,CTZ,샘슨 카운티
CUA,Ciudad Constituci처n Airport,25.036943,-111.664444,CUA,시우다드 콘스티투시온 공항
CUB,Owens Field,33.936943,-81.11528,CAE,오웬스 필드
CUC,Camilo Daza International Airport,7.92892685,-72.51151603,CUC,카밀로 다자 국제공항
CUD,Caloundra,-26.80301345,153.1078723,CUD,칼룬드라
CUE,Mariscal Lamar International Airport,-2.889343,-78.98689,CUE,마리스칼 라마 국제공항
CUF,Levaldigi Airport,44.54739375,7.623336249,CUF,레발디지 공항
CUG,Cudal,-32,151,CUG,쿠달
CUH,Municipal,35.983334,-96.76667,CUH,시립
CUI,Currillo,4.666667,-72,CUI,쿠릴로
CUJ,Culion,11.833333,120,CUJ,쿨리온
CUK,Caye Caulker,17.7351537,-88.03229537,CUK,케이 콜커
CUL,Culiacan International Airport,24.76450365,-107.478339,CUL,쿨리아칸 국제공항
CUM,Cumana,10.4510747,-64.13215209,CUM,쿠마나
CUN,Cancun International Airport,21.0407394,-86.88181491,CUN,칸쿤 국제공항
CUO,Caruru,1.033333,-71.23333,CUO,카루루
CUP,Carupano,10.6607285,-63.26154023,CUP,카루파노
CUQ,Coen,-13.76219095,143.1157573,CUQ,코엔
CUR,Curacao International Airport,12.1890286,-68.9621609,CUR,퀴라소 국제공항
CUS,Municipal,31.833332,-107.63333,CUS,시립
CUT,Cutral,-38.9,-69,CUT,컷럴
CUU,Gen Fierro Villalobos Airport,28.704048,-105.96952,CUU,젠 피에로 빌라로보스 공항
CUV,Casigua,11.066667,-70.95,CUV,카시구아
CUW,Cube Cove,57.941666,-134.75,CUW,큐브 코브
CUX,Cuddihy Field,27.75,-97.33611,CRP,쿠디히 필드
CUY,Cue,-27.4469307,117.9177756,CUY,큐
CUZ,Alejandro Velasco Astete International Airport,-13.5362553,-71.93777215,CUZ,알레한드로 벨라스코 아스테테 국제공항
CVA,Civic Ar Heli,40.496666,-80.23583,PIT,시빅 아르 헬리
CVB,Chungribu,-4.8066201,144.7149963,CVB,충리부
CVC,Cleve,-33.70953905,136.5050336,CVC,클리브
CVE,Covenas,9.40092,-75.6913,CVE,코베나스
CVF,Courchevel,45.397101,6.633762365,CVF,쿠쉐벨
CVG,Cincinnati/Northern Kentucky Airport,39.0555,-84.66145,CVG,신시내티/노던켄터키 공항
CVH,Caviahue,-37.916668,-71,CVH,카비아우에
CVI,Caleta Olivia,-46.416668,-67.416664,CVI,칼레타 올리비아
CVJ,General Mariano Matamoros Airport,18.916668,-99.25,CVJ,헤네랄 마리아노 마타모로스 공항
CVL,Cape Vogel,-9.466667,150.5,CVL,케이프 보겔
CVM,Ciudad Victoria Airport,23.713888,-98.96528,CVM,시우다드 빅토리아 공항
CVN,Clovis Municipal Airport,34.42584135,-103.0797077,CVN,클로비스 시립공항
CVO,Albany,44.63333,-123.11667,CVO,올버니
CVQ,Carnarvon Airport,-24.883429,113.66358,CVQ,카나본 공항
CVR,Hughes,33.975,-118.417,CVR,휴즈
CVS,Cannon AFB,34.382445,-103.320967,CVN,대포 AFB
CVT,Coventry Airport,52.3699147,-1.481289537,CVT,코번트리 공항
CVU,Corvo Island (Azores) Airport,39.7,-31.1,CVU,코르보 섬(아조레스) 공항
CWA,Central Wisconsin Airport,44.7727172,-89.66716494,AUW,센트럴 위스콘신 공항
CWB,Afonso Pena International Airport,-25.5322,-49.176544,CWB,아폰소 페나 국제공항
CWC,Chernivtsi International Airport,48.26047165,25.97853292,CWC,체르니우치 국제공항
CWF,Chennault International.,30.305918,-93.23189,LCH,첸노인터내셔널.
CWG,Callaway Gardens,32.8418797,-84.8784817,CWG,캘러웨이 가든스
CWI,Clinton,41.829445,-90.33195,CWI,클린턴
CWJ,Cangyuan Washan Airport,23.2772471,99.37478144,CWJ,창위안 와산 공항
CWK,Chitrakoot Airport,25.167694,80.9358,CWK,치트라쿠트 공항
CWL,Cardiff Airport,51.39850525,-3.339210333,CWL,카디프 공항
CWO,Ft Wolter AAF,32.8,-98.11667,MWL,포트 월터 AAF
CWP,Campbellpore,33.766666,72.433334,CWP,캠벨포어
CWR,Cowarie,-27.7125889,138.3256346,CWR,코와리
CWS,Center Island,47.485,-122.83139,CWS,센터 아일랜드
CWT,Cowra,-33.8447919,148.6487317,CWT,카우라
CWW,Corowa,-35.966667,146.35,CWW,코로와
CWX,Cochise County Airport,32.2460187,-109.8947839,CWX,코치스 카운티 공항
CXA,Caicara Del Orinoco,7.62584735,-66.16444198,CXA,카이카라 델 오리노코
CXB,Coxs Bazar Airport,21.45533845,91.9640527,CXB,콕스 바자르 공항
CXC,Chitina Airport,61.5833487,-144.4322008,CXC,치티나 공항
CXF,Coldfoot,67.25154445,-150.20424,CXF,콜드풋
CXH,Coal Harbour Sea Plane Base,49.266666,-123.11667,YVR,석탄 항구 해상 비행기 기지
CXI,Christmas Island Airport,1.966667,-157.45,CXI,크리스마스 섬 공항
CXJ,Hugo Cantergiani Regional Airport,-29.19705975,-51.1861648,CXJ,휴고 칸테르지아니 지역공항
CXL,International,32.666668,-115.51667,CXL,국제적인
CXN,Candala,11.4957059,49.9105124,CXN,칸달라
CXO,Montgomery Co,30.316668,-95.45,CXO,몽고메리 공동
CXP,Tunggul Wulung,-7.733333,109,CXP,퉁굴 우룽
CXQ,Christmas Creek,-18.866667,125.916664,CXQ,크리스마스 크릭
CXR,Cam Ranh International Airport,11.9968644,109.2172886,NHA,캄란 국제공항
CXT,Charters Towers,-20.046667,146.26917,CXT,차터스 타워스
CXY,Cat Cays,25.416668,-77.816666,CXY,고양이 케이스
CYA,Les Cayes,18.2700495,-73.79197271,CYA,레 케이즈
CYB,Charles Kirkconnel International Airport,19.690191,-79.87941,CYB,찰스 커크코넬 국제공항
CYC,Caye Chapel,17.666668,-88.833336,CYC,케이 채플
CYD,San Ignacio Town Airstrip,17.104722,-89.101389,CYD,산 이그나시오 타운 활주로
CYE,Crystal Lake,41.210278,-75.83222,CYE,크리스탈 레이크
CYF,Chefornak Sea Plane Base,60.216667,-164.2,CYF,체포르낙 해상비행기 기지
CYG,Corryong,-36.25,147.9,CYG,코룡
CYI,Chiayi Airport,23.45932555,120.3937162,CYI,자이 공항
CYL,Coyoles,15,-86.5,CYL,코욜스
CYM,Chatham SPB,57.5,-135,CYM,채텀 SPB
CYO,Cayo Largo Del Sur Airport,21.616667,-81.51667,CYO,카요 라르고 델 수르 공항
CYP,Calbayog Airport,12.069754,124.5458346,CYP,칼바요그 공항
CYR,Laguna De Los Patos,-34.166668,-57.5,CYR,라구나 데 로스 파토스
CYS,Cheyenne,41.1528709,-104.819273,CYS,샤이엔
CYT,Intermediate,60.08,-142.49445,CYT,중급
CYU,Cuyo,10.883333,121,CYU,쿠요
CYW,Celaya,20.5456333,-100.8852786,CYW,셀라야
CYX,Cherskiy Airport,68.7427218,161.3324435,CYX,체르스키 공항
CYZ,Cauayan Airport,16.9305428,121.7522268,CYZ,카우아얀 공항
CZA,Chichen Itza,20.666668,-88.566666,CZA,치첸이트사
CZB,Carlos Ruhl,-28.641666,-53.558334,CZB,카를로스 룰
CZC,Copper Centre,61.966667,-145.3,CZC,구리 센터
CZE,Coro,11.415833,-69.681946,CZE,코로
CZF,Cape Romanzof,61.7803453,-166.040404,CZF,케이프 로만조프
CZH,Corozal,18.38232605,-88.41086534,CZH,코로잘
CZJ,Corazon De Jesus,9.570556,-79.368614,CZJ,코라존 데 헤수스
CZK,Cascade Locks/Stevens,45.666668,-121.9,CZK,캐스케이드락/스티븐스
CZL,Ain El Bey Airport,36.3051916,6.6184457,CZL,아인 엘 베이 공항
CZM,Cozumel Airport,20.52296195,-86.92943828,CZM,코수멜 공항
CZN,Chisana Field,62.07083,-142.05,CZN,치사나 필드
CZO,Chistochina,62.5636319,-144.669765,CZO,치스토차이나
CZP,Cape Pole,55.9661111,-133.7966667,CZP,케이프 폴
CZR,Chara Kyust-Kemda Airport,56.913333,118.27,CZR,차라 큐스트-켐다 공항
CZS,Campo Internacional Airport,-7.583333,-72.78333,CZS,캄포 국제공항
CZT,Carrizo Springs,28.523977,-99.831245,CZT,카리조 스프링스
CZU,Corozal Airport,9.3375,-75.282776,CZU,코로잘 공항
CZW,Czestochowa,50.816666,19.1,CZW,체스토호와
CZX,Changzhou Airport,31.9184829,119.7784139,CZX,창저우 공항
CZY,Cluny,-24.516666,139.53334,CZY,클뤼니
CZZ,Campo,37.1,-102.583336,CZZ,캄포
DAA,Davison AAF,37.5,-78.75,DAA,데이비슨 AAF
DAB,Daytona Beach International Airport,29.1816439,-81.05426943,DAB,데이토나 비치 국제공항
DAC,Hazrat Shahjalal International Airport,23.84229135,90.40375286,DAC,하즈라트 샤잘랄 국제공항
DAD,Da Nang International Airport,16.0425792,108.1971613,DAD,다낭 국제공항
DAF,Daup,-4.733333,144.95,DAF,다웁
DAG,Barstow-Daggett,34.25,-117.333336,DAG,바스토-다게트
DAH,Dathina,13.866667,46.13333,DAH,다티나
DAJ,Dauan Island,-9.433333,142.53334,DAJ,다우안섬
DAK,Dakhla,25.414722,28.999166,DAK,다클라
DAL,Dallas Love Field,32.8450229,-96.8498413,DFW,달라스 러브 필드
DAM,Damascus International Airport,33.4108334,36.51391167,DAM,다마스쿠스 국제공항
DAN,Municipal,36.573055,-79.335,DAN,시립
DAO,Dabo,-8.433056,147.84944,DAO,다보
DAP,Darchula,29.6684704,80.54784911,DAP,다르출라
DAR,Julius Nyerere International Airport,-6.8741937,39.20752396,DAR,줄리어스 니에레레 국제공항
DAS,Great Bear Lake,66.7031021,-119.707,DAS,그레이트베어레이크
DAT,Datong Airport,40.06061715,113.4818547,DAT,다퉁 공항
DAU,Daru Airport,-9.0867605,143.2079998,DAU,다루공항
DAV,Enrique Malek Airport,8.383333,-82.433334,DAV,엔리케 말렉 공항
DAX,Dazhou Heshi Airport,31.12818985,107.4284826,DAX,다저우 허시 공항
DAY,James M. Cox Dayton International Airport,39.9053187,-84.22024542,DAY,제임스 M. 콕스 데이턴 국제공항
DAZ,Darwaz,38.4611015,70.8824997,DAZ,다르와즈
DBA,Dalbandin,28.873098,64.40751848,DBA,달반딘
DBB,Alalamain International,30.924444,28.46139,DBB,알라마인 인터내셔널
DBC,Baicheng Chang'an,45.5065501,123.0206999,DBC,바이청 장안
DBD,Dhanbad,23.783333,86.45,DBD,단바드
DBK,Dutch Bay SPB Seaplane Base,8.273,79.756,DBK,더치 베이 SPB 수상비행기 기지
DBM,Debra Marcos,10.319444,37.743057,DBM,데브라 마르코스
DBN,Municipal,32.561943,-82.986115,DBN,시립
DBO,Dubbo City Regional Airport,-32.2150208,148.5781248,DBO,더보시티 지역공항
DBP,Debepare,-6.3082279,141.9048285,DBP,데베파레
DBQ,Dubuque Municipal Airport,42.41,-90.71083,DBQ,더뷰크 시립공항
DBR,Darbhanga Airport,26.1967856,85.9118892,DBR,다르방가 공항
DBS,Dubois,44.166668,-112.23333,DBS,뒤부아
DBT,Debra Tabor,11.968056,38.025276,DBT,데브라 테이버
DBU,Dambulu Oya Tank,7.86,80.651665,DBU,담불루 오야 탱크
DBV,Dubrovnik Airport,42.56149335,18.26433626,DBV,두브로브니크 공항
DBY,Dalby,-27.15804315,151.2593984,DBY,달비
DCA,Ronald Reagan National Airport,38.853436,-77.04346,WAS,로널드 레이건 국립공항
DCF,Canefield Airport,15.5,-61.333332,DOM,케인필드 공항
DCG,Dubai Creek SPB,25.2644444,55.3116667,DXB,두바이 크릭 SPB
DCI,Rafsu Decimomannu,39.35,8.966667,DCI,라프수 데시모만누
DCK,Dahl Creek Airport,66.9441134,-156.9057329,DCK,달 크릭 공항
DCM,Mazamet Airport,43.5563998,2.289003274,DCM,마자메 공항
DCN,RAAF Curtin,-17.580804,123.8215436,DRB,RAAF 커틴
DCP,Cabin Plant Heliport,59.23361111,-121.691388,DCP,캐빈 플랜트 헬기장
DCR,Decatur Hi-Way,40.833332,-84.933334,DCR,디케이터 하이웨이
DCT,Duncan Town,22.25,-75.75,DCT,던컨 타운
DCU,Pyor,34.6,-86.98333,DCU,피오르
DCY,Daocheng Yading Airport,29.31628015,100.0605535,DCY,다오청 야딩 공항
DDC,Dodge City Municipal Airport,37.7611827,-99.9657378,DDC,닷지 시티 시립공항
DDD,Dhaalu Airport,2.66648215,72.8861168,DDD,달루 공항
DDG,Langtou Airport,40.0264417,124.2815411,DDG,랑터우 공항
DDI,Daydream Island,-20.266666,148.81667,DDI,데이드림 아일랜드
DDM,Dodoima,-8.483333,145.16667,DDM,도도이마
DDN,Delta Downs,-16.916668,141.3,DDN,델타 다운스
DDP,Dorado Beach,18.483334,-66.15,DDP,도라도 해변
DDR,Shigatse Tingri Airport,28.604567,86.798,DDR,시가체 팅그리 공항
DDU,Dadu,26.75,67.75,DDU,다두
DEA,Dera Ghazi Khan Airport,29.9462594,70.5222664,DEA,데라가지칸 공항
DEB,Debrecen Airport,47.55,21.7,DEB,데브레첸 공항
DEC,Decatur Airport,39.83349835,-88.86199101,DEC,디케이터 공항
DED,Dehra Dun Airport,30.316668,78.03333,DED,데라둔 공항
DEE,Mendeleyevo Airport,43.96107965,145.6840018,DEE,멘델레예보 공항
DEF,Dezful Airport,32.4401058,48.385778,DEF,데즈풀 공항
DEH,Municipal,43.3,-91.8,DEH,시립
DEI,Denis Island,-3.80192305,55.66720067,DEI,데니스 아일랜드
DEL,Indira Gandhi International Airport,28.5551678,77.08473848,DEL,인디라 간디 국제공항
DEM,Dembidollo,8.5508879,34.85988637,DEM,뎀비돌로
DEN,Denver International Airport,39.8606676,-104.6853673,DEN,덴버 국제공항
DEO,Hyatt Regency Heliport,42.3,-83.166664,DEO,하얏트 리젠시 헬리포트
DEP,Deparizo,27.35,94,DEP,데파리조
DEQ,Deqing Moganshan Airport,30.504167,120.107222,DEQ,더칭 모간샨 공항
DER,Derim,-6.1,147.08333,DER,데림
DES,Desroches,-5.69661175,53.65595195,DES,데로슈
DET,Detroit City,42.4112358,-83.00852132,DTT,디트로이트 시티
DEX,Nop Goliat Airport,-4.8560338,139.4797211,DEX,놉 골리앗 공항
DEZ,Al Jafrah,35.28755,40.186806,DEZ,알 자프라
DFA,Danfeng Airport,33.7085,110.2493,DFA,단펑 공항
DFI,Memorial,41.283333,-84.36667,DFI,기념물
DFP,Drumduff,-16,143.33333,DFP,드럼더프
DFW,Dallas/Fort Worth International Airport,32.89651945,-97.04652205,DFW,댈러스/포트워스 국제공항
DGA,Dangriga,17.183332,-88.566666,DGA,단그리가
DGB,Danger Bay,58.083332,-152.75,DGB,데인저 베이
DGC,Degahbur,8.233333,43.583332,DGC,데가부르
DGD,Dalgaranga,-27.818056,117.30139,DGD,달가랑가
DGE,Mudgee,-32.56243675,149.6139343,DGE,머지
DGF,Douglas Lake,50.1645563,-120.1702593,DGF,더글라스 레이크
DGG,Daugo,68.03,-162.9,DGG,다우고
DGH,Deoghar International Airport,24.444722,86.7025,DGH,데오가르 국제공항
DGK,Dugong,-22.134167,35.443611,DGK,듀공
DGL,Douglas Municipal,31.35,-109.566666,DUG,더글러스 시립
DGM,Dongguan,23.03,113.74,DGM,동관
DGN,NAF,38.2,-88.683334,DGN,NAF
DGO,Guadalupe Victoria Airport,24.125,-104.525,DGO,과달루페 빅토리아 공항
DGP,Daugavpils,55.88333,26.533333,DGP,다우가프필스
DGR,Dargaville,-35.93911065,173.8940714,DGR,다가빌
DGT,Dumaguete Airport,9.3340538,123.3019857,DGT,두마게테 공항
DGU,Dedougou,12.45805445,-3.491975386,DGU,데도우구
DGW,Converse County,42.75,-105.4,DGW,컨버스 카운티
DHA,King Abdulaziz AB,26.39286,50.17475,DHA,압둘아지즈 국왕 AB
DHB,Deer Harbor,48.6209117,-123.0032063,DHB,디어하버
DHD,Durham Downs,-26.1,149.08333,DHD,더럼 다운스
DHF,Al Dhafra Military Airport,24.433332,54.65,AUH,알다프라 군사공항
DHG,Dalnegorks,44.55892,135.491233,DHG,달네고르크스
DHH,Balikun Dahe Airport,43.7546,93.1311,DHH,발리쿤 다헤 공항
DHI,Dhangarhi,28.683332,80.63333,DHI,당가리어
DHL,Dhala,13.7375,44.729168,DHL,달라
DHM,Gaggal Airport,32.3,76.26667,DHM,가갈 공항
DHN,Dothan Regional Airport,31.32003875,-85.44995912,DHN,도단 지역공항
DHO,Horn River,59.4593,-122.2553,DHO,혼 리버
DHR,De Kooy/Den Helder Airport,52.95,4.75,DHR,드 쿠이/덴헬데르 공항
DHT,Dalhart,36.066666,-102.51667,DHT,달하트
DHX,Dhoho International Airport,-7.761672,111.951521,DHX,도호 국제공항
DIA,Doha International Airport,25.2607,51.5646,DIA,도하 국제공항
DIB,Dibrugarh Airport,27.4854679,95.0170764,DIB,디브루가 공항
DIE,Antsiranana/Arrachart,-12.3465933,49.28811328,DIE,안트시라나나/아라차트
DIG,Diqing Shangri-La Airport,27.79673685,99.68187687,DIG,디칭 샹그릴라 공항
DIJ,Dijon,47.26619305,5.088719824,DIJ,디종
DIK,Dickinson Regional Airport,46.833332,-102.9,DIK,디킨슨 지역공항
DIL,Comoro Airport,-8.549616,125.525,DIL,코모로 공항
DIM,Dimbokro,6.75,-4.766667,DIM,딤보로
DIN,Dien Bien Airport,21.3949323,103.0070362,DIN,디엔비엔 공항
DIO,Diomede Island,65.75,-168.95,DIO,디오메드섬
DIP,Diapaga,12.033333,2.033333,DIP,디아파가
DIQ,Divinopolis,-20.18147045,-44.87004452,DIQ,디비노폴리스
DIR,Aba Tenna D Yilma Airport,9.61338,41.857994,DIR,아바 텐나 D 일마 공항
DIS,Loubomo,-4.20510725,12.65893052,DIS,루보모
DIU,Diu Airport,20.71439565,70.92204629,DIU,디우 공항
DIV,Divo,5.8,-5.25,DIV,디보
DIW,Mawella Lagoon Airport,5.990751,80.73323,DIW,마웰라 라군 공항
DIY,Diyarbakir Airport,37.89232495,40.19921443,DIY,디야르바키르 공항
DJA,Djougou,9.6922065,1.636236,DJA,주구
DJB,Sultan Thaha Airport,-1.63925445,103.646151,DJB,술탄 타하 공항
DJE,Melita Airport,33.87118,10.775145,DJE,멜리타 공항
DJG,Inedbirenne Airport,24.465279,9.488889,DJG,이네드비렌 공항
DJH,Jebel Ali Seaplane Base,24.988889,55.023889,DJH,제벨 알리 수상비행기 기지
DJJ,Sentani Airport,-2.5782397,140.5184883,DJJ,센타니 공항
DJM,Djambala,-2.515203,14.75577103,DJM,젬발라
DJN,Delta Junction,64.0488787,-145.7171901,DJN,델타 정션
DJO,Daloa,6.866944,-6.466667,DJO,달로아
DJU,Djupivogur,64.6430303,-14.2775558,DJU,듀피보구르
DKA,Katsina,13.0057213,7.659455216,DKA,카치나
DKI,Dunk Island,-17.9371869,146.140759,DKI,덩크아일랜드
DKK,Dunkirk,42.483334,-79.333336,DKK,덩케르크
DKL,Kiwigana Lodge Heliport,59.2416,-122.9222,DKL,키위가나 로지 헬리포트
DKR,Leopold Sedar Senghor International Airport,14.73702885,-17.48270937,DKR,레오폴드 세다르 셍고르 국제공항
DKS,Dikson,73.51668275,80.37453517,DKS,딕슨
DKV,Docker River,-24.85969965,129.1221569,DKV,도커 리버
DLA,Douala Airport,4.01357,9.716386662,DLA,두알라 공항
DLB,Dalbertis,56.7417,23.8911,DLB,달베르티스
DLC,Dalian Zhoushuizi International Airport,38.96412695,121.5414272,DLC,다롄 저우수이쯔 국제공항
DLE,Dole-Jura Airport,47.0417424,5.427646765,DLE,돌-주라 공항
DLF,Laughlin AFB,29.366667,-100.9,DRT,라플린 AFB
DLG,Dillingham Airport,59.0433568,-158.5112028,DLG,딜링엄 공항
DLH,Duluth International Airport,46.84183845,-92.20329685,DLH,덜루스 국제공항
DLI,Lien Khuong Airport,11.75042785,108.3611709,DLI,리엔크엉 공항
DLK,Dulkaninna,-29.016666,139.46666,DLK,둘카닌나
DLL,Dillon,34.416668,-79.36667,DLL,딜런
DLM,Dalaman Airport,36.71183085,28.78578384,DLM,달라만 공항
DLN,Dillon,45.216667,-112.63333,DLN,딜런
DLO,Dolomi,55.122223,-132.05,DLO,돌로미
DLR,Dalnerechensk Airport,45.8783,133.7363,DLR,달네레첸스크 공항
DLS,Columbia Gorge Regional/The Dalles Municipal Airport,45.6,-121.166664,DLS,컬럼비아 협곡 지역/댈러스 시립공항
DLU,Dali Airport,25.6498551,100.319887,DLU,달리 공항
DLV,Delissaville,-12.566667,130.63333,DLV,델리사빌
DLY,Dillons Bay,-18.7,169.15,DLY,딜런스 베이
DLZ,Dalanzadgad,43.966667,104.683334,DLZ,달란자드가드
DMA,Davis Monthan AFB,32.17079565,-110.8699024,TUS,데이비스 몬탄 AFB
DMB,Jambyl Airport,42.9,71.36667,DMB,잠빌 공항
DMD,Doomadgee Airport,-17.93696505,138.8145357,DMD,두마지 공항
DME,Moscow Domodedovo Airport,55.40912105,37.90416621,MOW,모스크바 도모데도보 공항
DMK,Don Mueang International Airport,13.9122207,100.6035314,BKK,돈므앙 국제공항
DMM,King Fahd International Airport,26.46739665,49.79887844,DMM,킹파드 국제공항
DMN,Deming,32.2623094,-107.7205839,DMN,데밍
DMO,Sedalia,38.70902845,-93.17533283,DMO,시달리아
DMR,Dhamar,14.533333,44.433334,DMR,다마르
DMT,Diamantino,-14.5,-56.5,DMT,디아만티노
