code,name,latitude,longitude,city_code
AAA,Anaa,-17.3506654,-145.5111199,AAA
AAB,Arrabury Airport,-26.6967835,141.049092,AAB
AAC,El Arish International Airport,31.0742836,33.82917152,AAC
AAD,Adado Airport,6.09628635,46.63770837,AAD
AAE,Les Salines Airport,36.821392,7.811857,AAE
AAF,Apalachicola Regional,29.7302356,-85.02964472,AAF
AAG,Arapoti,-24.1037812,-49.78949435,AAG
AAH,Aachen/Merzbruck,50.75,6.133333,AAH
AAI,Arraias,-12.916667,-46.933334,AAI
AAJ,Cayana Airstrip,3.8987445,-55.5779688,AAJ
AAK,Aranuka,0.166667,173.58333,AAK
AAL,Aalborg Airport,57.0864352,9.868075521,AAL
AAM,Mala Mala,-24.8,31.533333,AAM
AAN,Al Ain Airport,24.260231,55.616627,AAN
AAO,Anaco,9.4298739,-64.47086335,AAO
AAP,Andrau Airpark,29.833332,-95.666664,HOU
AAQ,Anapa Airport,45.00265265,37.34498314,AAQ
AAR,Aarhus Airport,56.30454255,10.61284982,AAR
AAS,Apalapsili,-3.880849,139.3107061,AAS
AAT,Altay Airport,47.74833705,88.08948249,AAT
AAU,Asau,-13.458333,-172.6,AAU
AAV,Allah Valley,6.36768745,124.7526616,AAV
AAW,Abbottabad,34.2,73.25,AAW
AAX,Araxa Airport,-19.563132,-46.96040575,AAX
AAY,Al Ghaydah,16.1879658,52.17271502,AAY
AAZ,Quetzaltenango,14.8611558,-91.50677134,AAZ
ABA,Abakan Airport,53.716667,91.5,ABA
ABB,Asaba International Airport,6.20565465,6.663854565,ABB
ABC,Los Llanos,38.948334,-1.863333,ABC
ABD,Abadan Airport,30.3668469,48.22843951,ABD
ABE,Lehigh Valley International Airport,40.6511631,-75.44225387,ABE
ABF,Abaiang,1.670833,173.30417,ABF
ABG,Abingdon,-17.666668,143.2,ABG
ABH,Alpha,-23.65,146.63333,ABH
ABI,Abilene Regional Airport,32.40774375,-99.67936993,ABI
ABJ,Felix Houphouet Boigny Airport,5.2649283,-3.925957339,ABJ
ABK,Kabri Dar,6.733889,44.26611,ABK
ABL,Ambler Airport,67.1058333,-157.8536111,ABL
ABM,Northern Peninsula Airport,-10.942619,142.45033,ABM
ABN,Albina,5.5,-54.083332,ABN
ABO,Aboisso,5.433333,-3.216667,ABO
ABP,Atkamba,-6.06470215,141.0952152,ABP
ABQ,Albuquerque International Sunport,35.03766945,-106.6109675,ABQ
ABR,Aberdeen Municipal Airport,45.4525,-98.42611,ABR
ABS,Abu Simbel,22.3722282,31.61302768,ABS
ABT,Al-Aqiq Airport,20.296139,41.634277,ABT
ABU,Haliwen Airport,-9.133333,124.88333,ABU
ABV,Nnamdi Azikiwe International Airport,9.00668065,7.265007351,ABV
ABW,Abau,-10.183333,148.7,ABW
ABX,Albury Airport,-36.06894285,146.9518768,ABX
ABY,Southwest Georgia Regional Airport,31.5339678,-84.19254493,ABY
ABZ,Aberdeen International Airport,57.20195485,-2.20199135,ABZ
ACA,Acapulco International Airport,16.7565936,-99.75293698,ACA
ACB,Antrim County,44.98832545,-85.1971963,ACB
ACC,Kotoka International Airport,5.60428935,-0.167967626,ACC
ACD,Acandi,8.516667,-77.3,ACD
ACE,Lanzarote Airport,28.94568045,-13.60758816,ACE
ACF,Alaer Talimu Airport,40.464167,81.246944,ACF
ACH,Altenrhein Airport,47.4859603,9.5598603,ACH
ACI,Alderney Airport,49.70694185,-2.214498597,ACI
ACJ,Anuradhapura,8.35,80.38333,ACJ
ACK,Nantucket Memorial Airport,41.2563506,-70.06422704,ACK
ACL,Aguaclara,4.7470509,-72.9919234,ACL
ACM,Arica,-2,-71.833336,ACM
ACN,International,29.3,-100.916664,ACN
ACO,Cobano Airport,9.693365,-85.091216,ACO
ACP,Sahand,37.3477904,46.1241049,ACP
ACR,Araracuara,-0.383333,-72.3,ACR
ACS,Achinsk,56.270124,90.57983018,ACS
ACT,Waco Municipal Airport,31.609133,-97.22321,ACT
ACU,Achutupo,9.576389,-79.72444,ACU
ACV,Arcata-Eureka Airport,40.9763645,-124.1084259,ACV
ACX,Xingyi Airport,25.0839707,104.9588029,ACX
ACY,Atlantic City International Airport,39.45708535,-74.57027649,AIY
ACZ,Zabol Airport,31.09702475,61.54236908,ACZ
ADA,Adana Airport,36.98503,35.29736,ADA
ADB,Izmir Adnan Menderes Airport,38.28959325,27.15881974,IZM
ADC,Andakombe,-7.1371023,145.74531,ADC
ADD,Addis Ababa Bole International Airport,8.97958075,38.79727969,ADD
ADE,International,12.826116,45.037537,ADE
ADF,Adiyaman Airport,37.75,38.266666,ADF
ADG,Lenawee County,41.9,-84.03333,ADG
ADH,Aldan,58.6034931,125.4044631,ADH
ADI,Arandis,-22.4,15,ADI
ADJ,Marka International Airport,31.97342425,35.99461255,AMM
ADK,Adak Island Ns,51.88278,-176.64473,ADK
ADL,Adelaide Airport,-34.94724045,138.5330688,ADL
ADM,Ardmore Municipal Airport,34.3028,-97.0192,ADM
ADN,Andes,5.666667,-75.933334,ADN
ADO,Andamooka,-31.016666,137.15,ADO
ADP,Ampara,7.3385247,81.62522425,ADP
ADQ,Kodiak Benny Benson State Airport,57.755276,-152.51297,ADQ
ADR,Andrews,33.45,-79.566666,ADR
ADS,Addison Airport,32.783333,-97.3,DFW
ADT,Ada Municipal,34.80490015,-96.667616,ADT
ADU,Ardabil Airport,38.32367895,48.41727863,ADU
ADV,El Daein,11.4043102,26.1186495,ADV
ADW,Andrews AFB,38.8057469,-76.87741646,ADW
ADX,Leuchars,56.37559905,-2.859633955,ADX
ADY,Alldays,-22.67767555,29.05339556,ADY
ADZ,Gustavo Rojas Pinilla Airport,12.586047,-81.70221,ADZ
AEA,Abemama Atoll,0.490833,173.8289948,AEA
AEB,Youjiang,23.72020895,106.9609714,AEB
AED,Aleneva,58.033333,-152.9,AED
AEE,Adareil Airport,10.0524392,32.96200721,AEE
AEG,Aek Godang,1.3999604,99.42983273,AEG
AEH,Abéché,13.8465726,20.84964504,AEH
AEI,Algeciras,36.1289,-5.441301,AEI
AEK,Aseki,-7.366667,146.28334,AEK
AEL,Albert Lea,43.6800949,-93.36737639,AEL
AEM,Amgu,45.8414555,137.6736409,AEM
AEO,Aioun El Atrouss,16.71068715,-9.638219081,AEO
AEP,Jorge Newbery Airport,-34.55622,-58.41667,BUE
AEQ,Ar Horqin Airport,43.90797955,120.149348,AEQ
AER,Sochi International Airport,43.44397145,39.94009276,AER
AES,Vigra Alesund Airport,62.56018535,6.113415709,AES
AET,Allakaket,66.551934,-152.6214482,AET
AEU,Abu Musa,25.87599365,55.03426596,AEU
AEX,Alexandria International Airport,31.32927365,-92.54095487,AEX
AEY,Akureyri Airport,65.65698725,-18.07060713,AEY
AFA,San Rafael Airport,-34.58917,-68.40056,AFA
AFD,Port Alfred,-33.583332,26.883333,AFD
AFF,USAF Academy Airstrip,38.833332,-104.7,COS
AFI,Amalfi,6.8953157,-75.0467996,AFI
AFK,Ampara Kondavattavan Tank Airport,7.342169543,81.62931221,ADP
AFL,Alta Floresta Airport,-9.866163,-56.10603812,AFL
AFN,Municipal,42.833332,-72.066666,AFN
AFO,Municipal,42.733334,-110.933334,AFO
AFR,Afore,-9.13834475,148.3909714,AFR
AFS,Zarafshan,41.6155248,64.2317714,AFS
AFT,Afutara Aerodrome,-9.2,160.85,AFT
AFW,Fort Worth Alliance Airport,32.99299785,-97.31836461,DFW
AFY,Afyon,38.733334,30.6,AFY
AFZ,Sabzevar,36.171675,57.59941596,AFZ
AGA,Agadir Al Massira Airport,30.378326,-9.555895,AGA
AGB,Augsburg Airport,48.425278,10.931667,MUC
AGC,Allegheny County Airport,40.3534454,-79.92904654,PIT
AGD,Anggi,-1.383333,133.86667,AGD
AGE,Flugplatz,53.783333,7.916667,AGE
AGF,La Garenne Airport,44.17361,0.598611,AGF
AGG,Angoram,-4.168611,144.07388,AGG
AGH,Angelholm Helsingborg Airport,56.2972346,12.85284684,AGH
AGI,Wageningen,5.833333,-56.833332,AGI
AGJ,Aguni,26.59300295,127.2398599,AGJ
AGK,Kagua,-6.403333,143.84666,AGK
AGL,Wanigela,-9.33738355,149.1561027,AGL
AGM,Tasiilaq,65.6,-37.683334,AGM
AGN,Angoon,57.503887,-134.58333,AGN
AGO,Municipal,33.266666,-93.23333,AGO
AGP,Malaga Airport,36.67876135,-4.499980126,AGP
AGQ,Agrinion,38.6137021,21.3929834,AGQ
AGR,Kheria,27.158333,77.962776,AGR
AGS,Augusta Regional Airport,33.37230205,-81.96506391,AGS
AGT,Alejo Garcia Airport,-25.5,-54.833332,AGT
AGU,Aguascalients International Airport,21.701416,-102.31374,AGU
AGV,Acarigua,9.552222,-69.23333,AGV
AGW,Agnew,-12.1453511,142.1490609,AGW
AGX,Agatti Island Airport,10.828967,72.17987,AGX
AGZ,Aggeneys,-29.05,18.85,AGZ
AHA,Naha AFB,26.2,127.65,OKA
AHB,Abha Regional Airport,18.23429,42.657574,AHB
AHC,Amedee AAF,40.15,-120.13333,AHC
AHD,Downtown,34.166668,-97.13333,ADM
AHE,Ahe Airport,-14.4280996,-146.2570038,AHE
AHF,Municipal,40.3,-99.9,AHF
AHG,Agalega Island Airstrip,-10.3717,56.60313,AHG
AHH,Municipal,45.3,-92.35,AHH
AHI,Amahai,-3.34785185,128.9274633,AHI
AHJ,Hongyuan Airport,32.5367833,102.3502295,AHJ
AHL,Aishalton,2.4755665,-59.3194477,AHL
AHM,Sumner Parker Field,42.19029999,-122.6610031,AHM
AHN,Athens-Ben Epps,33.9487053,-83.32973998,AHN
AHO,Alghero-Fertilia Airport,40.63087935,8.288375274,AHO
AHS,Ahuas,15.4819002,-84.4160995,AHS
AHU,Charif Al Idrissi Airport,35.17972,-3.836944,AHU
AHW,Saih Rawl,31.34292,48.74668,AHW
AHY,Ambatolahy,-20.0153265,45.5375864,AHY
AHZ,Alpe D Huez,45.0870881,6.082792928,AHZ
AIA,Alliance Airport,42.051666,-102.80666,AIA
AIC,Airok,7.5,170.83333,AIC
AID,Municipal,40.166668,-85.683334,AID
AIE,Aiome,-5.166667,144.66667,AIE
AIF,Assis,-22.666668,-50.416668,AIF
AIG,Yalinga,6.521706,23.2605938,AIG
AIH,Aiambak,-7.34368705,141.2679197,AIH
AII,Alisabieh,11.15,42.716667,AII
AIK,Municipal,33.566666,-81.71667,AIK
AIL,Ailigandi,9.25,-78.083336,AIL
AIM,Ailuk Island,10.2164987,169.9825736,AIM
AIN,Wainwright,70.63790295,-160.0150279,AIN
AIO,Municipal,41.4,-95.01667,AIO
AIP,Ailinglapalap Island,7.266667,168.81667,AIP
AIR,Aripuana,-10.25,-59.38333,AIR
AIS,Arorae Island,-2.65,176.83333,AIS
AIT,Aitutaki Airport,-18.8364468,-159.76131,AIT
AIU,Atiu Island,-20.033333,-158.1,AIU
AIV,George Downer,33.13333,-88.15,AIV
AIW,Ai-ais,-27.9948193,17.59645141,AIW
AIY,Bader Field,39.3859082,-74.4254622,AIY
AIZ,Lee C Fine Memorial,38.0924572,-92.5535179,AIZ
AJA,Ajaccio Napoleon Bonaparte Airport,41.91987,8.794013,AJA
AJF,Jouf Airport,29.788668,40.101486,AJF
AJI,Agri Airport,39.65,43.025,AJI
AJJ,Akjoujt,19.72837225,-14.37806484,AJJ
AJK,Araak,34.13333,49.833332,AJK
AJL,Aizawl Airport,23.8407048,92.62105704,AJL
AJN,Ouani,-12.12890235,44.42886317,AJN
AJR,Arvidsjaur Airport,65.5920366,19.26458591,AJR
AJS,Abreojos,26.833332,-113.666664,AJS
AJU,Aracaju Airport,-10.98281225,-37.07602528,AJU
AJY,Agades,16.96522395,7.997894294,AJY
AKA,Ankang,32.7081,108.9311505,AKA
AKB,Atka,52.22221525,-174.2066819,AKB
AKC,Fulton International,41.04,-81.46778,CAK
AKD,Akola,20.697417,77.06134451,AKD
AKE,Akieni,-1.13967,13.9035997,AKE
AKF,Kufrah,24.17807115,23.31398076,AKF
AKG,Anguganak,-3.633333,142.01666,AKG
AKH,Prince Sultan Air Base,24.063334,47.580555,AKH
AKI,Akiak,60.9052437,-161.2268225,AKI
AKJ,Asahikawa Airport,43.6686785,142.4513869,AKJ
AKK,Akhiok SPB,56.944443,-154.16667,AKK
AKL,Auckland Airport,-37.00889695,174.7912138,AKL
AKM,Zakouma,10.8875904,19.8153005,AKM
AKN,King Salmon Airport,58.6753166,-156.649387,AKN
AKO,Colorado Plains Regional Airport,40.17740845,-103.2274355,AKO
AKP,Anaktuvuk,68.13254385,-151.7456225,AKP
AKQ,Gunung Batin,-4.616667,105.23333,AKQ
AKR,Akure,7.25,5.083333,AKR
AKS,Gwaunaru'u,-8.7042047,160.6817763,AKS
AKT,Raf Akrotiri,34.5903698,32.9877483,AKT
AKU,Aksu Airport,41.2625,80.291667,AKU
AKV,Akulivik,60.733334,-78.583336,AKV
AKW,Aghajari,30.74386435,49.67943964,AKW
AKX,Aktyubinsk Airport,50.249336,57.211403,AKX
AKY,Civil Airport,20.130278,92.88028,AKY
ALA,Almaty Airport,43.35568625,77.04258379,ALA
ALB,Albany International Airport,42.7457516,-73.8092091,ALB
ALC,Alicante-Elche Airport,38.2888263,-0.5542897,ALC
ALD,Alerta,-11.683333,-69.333336,ALD
ALE,Alpine,30.416668,-103.75,ALE
ALF,Alta Airport,69.9771632,23.35951897,ALF
ALG,Houari Boumediene Airport,36.7013497,3.210903183,ALG
ALH,Albany Airport,-34.9443954,117.8095889,ALH
ALI,International,27.75,-98.066666,ALI
ALJ,Alexander Bay Airport,-28.573333,16.534444,ALJ
ALK,Asela,7.966667,39.11667,ALK
ALL,Albenga,44.05,8.216667,ALL
ALM,Municipal,32.845833,-105.985275,ALM
ALN,Alton,38.891666,-90.04833,ALN
ALO,Waterloo Airport,42.55611,-92.39972,ALO
ALP,Nejrab,36.185352,37.227074,ALP
ALQ,Federal,-29.799723,-55.763332,ALQ
ALR,Alexandra,-45.21389,169.36945,ALR
ALS,Alamosa Municipal Airport,37.43667,-105.86667,ALS
ALT,Alenquer,-1.933333,-54.766666,ALT
ALU,Alula,11.966667,50.8,ALU
ALW,Walla Walla Airport,46.0940857,-118.2911423,ALW
ALX,Thomas C Russell Field,32.91343435,-85.96246743,ALX
ALY,El Nohza,31.192545,29.953058,ALY
ALZ,Alitak SPB,56.895832,-154.24583,ALZ
AMA,Rick Husband Amarillo International Airport,35.21959415,-101.7018304,AMA
AMB,Ambilobe,-13.1865961,48.9876126,AMB
AMC,Am Timan,11.0350134,20.27470129,AMC
AMD,Ahmedabad Airport,23.0855562,72.6305442,AMD
AME,Alto Molocue,-15.833333,37.583332,AME
AMF,Ama,-4.166667,141.66667,AMF
AMG,Amboin,-4.616667,143.7,AMG
AMH,Arba Mintch Airport,6.036111,37.576942,AMH
AMI,Selaparang,-8.5618359,116.1022297,AMI
AMJ,Almenara,-16.183332,-40.683334,AMJ
AMK,Animas Airpark,37.15,-107.75,DRO
AML,Puerto Armuellas,8.266667,-82.86667,AML
AMM,Queen Alia International Airport,31.7241013,35.99544021,AMM
AMN,Gratiot Community,43.38333,-84.65,AMN
AMO,Mao,14.116667,15.316667,AMO
AMP,Ampanihy,-24.6996994,44.7341995,AMP
AMQ,Pattimura Airport,-3.71111525,128.0878877,AMQ
AMR,Arno,7.033333,171.23334,AMR
AMS,Amsterdam Airport Schiphol,52.32697895,4.7415052,AMS
AMT,Amata,-26.766666,132.03334,AMT
AMU,Amanab,-3.516667,141.15,AMU
AMV,Amderma,69.7634173,61.56749324,AMV
AMW,Ames,41.9903107,-93.62215445,AMW
AMX,Ammaroo,-21.7383003,135.2420044,AMX
AMY,Ambatomainty,-17.683332,45.666668,AMY
AMZ,Ardmore,-37.033333,174.96666,AMZ
ANA,John Wayne International,33.816666,-117.933334,ANA
ANB,Anniston Metropolitan,33.59028,-85.855835,ANB
ANC,Ted Stevens Anchorage International Airport,61.18103525,-149.9978919,ANC
AND,Anderson,34.49361,-82.71,AND
ANE,Angers-Marce Airport,47.466667,-0.55,ANE
ANF,Cerro Moreno International Airport,-23.4523757,-70.43973434,ANF
ANG,Brie-Champniers,45.733334,0.216667,ANG
ANH,Anuha Island Resort,-8.983333,160.5,ANH
ANI,Aniak Airport,61.5813889,-159.5427778,ANI
ANJ,Zanaga,-2.8474064,13.8214267,ANJ
ANK,Etimesgut,39.9517942,32.68941441,ANK
ANL,Andulo,-11.25,17.25,ANL
ANM,Antsirabato,-14.9990678,50.3182525,ANM
ANN,Annette Island,55.0415764,-131.5646265,ANN
ANO,Angoche,-16.18367445,39.94441129,ANO
ANP,Lee,38.983334,-76.5,ANP
ANQ,Tri-State Steuben County,41.63333,-85,ANQ
ANR,Antwerp International Airport,51.1881429,4.463473861,ANR
ANS,Andahuaylas,-13.709079,-73.35160446,ANS
ANT,St Anton,47.15,10.283333,ANT
ANU,V.C. Bird International Airport,17.13578595,-61.79381928,ANU
ANV,Anvik Airport,62.6451092,-160.1932999,ANV
ANW,Ainsworth,42.55,-99.86667,ANW
ANX,Andenes Airport,69.29132535,16.13968095,ANX
ANY,Anthony,37.15,-98.03333,ANY
ANZ,Angus Downs,-25.083332,132.16667,ANZ
AOA,Aroa,-9.05,146.8,AOA
AOB,Annanberg,-4.916667,144.65,AOB
AOC,Altenburg Nobitz,50.98321195,12.50986326,AOC
AOD,Abou Deia,11.4637088,19.2874812,AOD
AOE,Anadolu University,39.81,30.519444,ESK
AOG,Anshan Teng'ao Airport,41.166668,123.03333,AOG
AOH,Allen County,40.766666,-84.1,AOH
AOI,Ancona Falconara Airport,43.61716225,13.36485803,AOI
AOJ,Aomori Airport,40.7340525,140.689686,AOJ
AOK,Karpathos Airport,35.42109615,27.14533345,AOK
AOL,Paso De Los Libres,-29.68922305,-57.15101499,AOL
AOM,Adam Airport,22.48980955,57.39154873,AOM
AON,Arona,-6.333333,146,AON
AOO,Altoona Airport,40.29686675,-78.32117438,AOO
AOP,Alferez FAP Alfredo Vladimir Sara Bauer Airport,-2.7952148,-76.46820104,AOP
AOR,Sultan Abdul Halim Airport,6.1893478,100.3972145,AOR
AOS,Amook,57.4705133,-153.8166725,AOS
AOT,Corrado Gex,45.738779,7.368228953,AOT
AOU,Attopeu,14.8,106.833336,AOU
APA,Centennial Airport,39.733334,-104.98333,DEN
APB,Apolo,-14.716667,-68.51667,APB
APC,Napa County,38.216488,-122.2765713,APC
APD,Arung Palakka Airport,-4.46021,120.30683,APD
APE,San Juan Aposento,-11.933333,-69.083336,APE
APF,Naples Municipal Airport,26.1523225,-81.77394138,APF
APG,Phillips AAF,39.5,-76.166664,APG
APH,Camp A P Hill,38.05,-77.35,APH
API,Apiay,4.06889,-73.051903,API
APJ,Ngari Burang Airport,30.3975,81.138611,APJ
APK,Apataki,-15.416667,-146.08333,APK
APL,Nampula Airport,-15.101667,39.287224,APL
APN,Alpena County Regional Airport,45.07017615,-83.56655477,APN
APO,Apartado Airport,7.817678,-76.71766,APO
APP,Asapa,-8.97966935,148.1030075,APP
APQ,Arapiraca,-9.7765662,-36.62984999,APQ
APR,April River,-8.5,145,APR
APS,Anapolis,-16.333332,-48.966667,APS
APT,Marion County,35.066666,-85.5,APT
APU,Apucarana,-23.55,-51.483334,APU
APV,Apple Valley,34.52639,-117.212776,APV
APW,Faleolo Airport,-13.832271,-171.999494,APW
APX,Arapongas,-23.483334,-51.466667,APX
APY,Alto Parnaiba,-9.133333,-45.933334,APY
APZ,Zapala,-38.916668,-70.083336,APZ
AQA,Araraquara,-21.816668,-48.13333,AQA
AQB,Quiche Airport,15.01,-91.15,AQB
AQG,Anqing Tianzhushan Airport,30.5859116,117.0561799,AQG
AQI,Qaisumah Airport,28.3342381,46.1219356,AQI
AQJ,King Hussein International Airport,29.6101427,35.01904,AQJ
AQM,Ariquemes,-9.933333,-63.066666,AQM
AQP,Rodriguez Ballon International Airport,-16.3423105,-71.56895879,AQP
AQS,Saqani,-17,170.9,AQS
AQY,Alyeska,60.9659745,-149.1234394,AQY
ARA,Acadiana Regional,30.03301825,-91.88190743,ARA
ARB,Municipal,42.3,-83.75,ARB
ARC,Arctic Village,68.1156573,-145.575639,ARC
ARD,Alor Island Airport,-8.683333,124.53333,ARD
ARE,Arecibo,18.4506187,-66.67429833,ARE
ARF,Acaricuara,0.533333,-70.133333,ARF
ARG,Walnut Ridge,36.066666,-90.95,ARG
ARH,Talagi Airport,64.599209,40.71860471,ARH
ARI,Chacalluta Airport,-18.3527842,-70.34121844,ARI
ARJ,Arso,-2.933333,140.78334,ARJ
ARK,Arusha Airport,-3.366667,36.683334,ARK
ARL,Arly,11.5970001,1.483,ARL
ARM,Armidale Airport,-30.5286256,151.6156495,ARM
ARN,Stockholm Arlanda Airport,59.6467921,17.93704433,STO
ARO,Arboletas,8.85,-76.433334,ARO
ARP,Aragip,-9.8,149.5,ARP
ARQ,Arauquita,7.033056,-71.43166,ARQ
ARR,Alto Rio Senguerr,-45.033333,-70.833336,ARR
ARS,Aragarcas,-15.8993998,-52.2411003,ARS
ART,Watertown Airport,43.990833,-76.021385,ART
ARU,Aracatuba Airport,-21.140815,-50.42513909,ARU
ARV,Noble F. Lee,45.924168,-89.73222,ARV
ARW,Arad,46.183334,21.266666,ARW
ARX,Asbury Park,40.216667,-74.1,ARX
ARY,Ararat,-37.31213875,142.9942952,ARY
ARZ,N'zeto,-7.5,13.5,ARZ
ASA,Assab International,13.07595515,42.6417473,ASA
ASB,Ashgabat Airport,37.9837541,58.36266734,ASB
ASC,Ascension,-15.916667,-63.15,ASC
ASD,Andros Town,24.70832875,-77.77238142,ASD
ASE,Aspen Airport,39.219685,-106.864685,ASE
ASF,Astrakhan Airport,46.28016705,48.01890715,ASF
ASG,Ashburton,-43.9,171.78334,ASG
ASH,Boire Field,42.78259315,-71.51763053,ASH
ASI,Saint Helena Airport,-7.966667,-14.4,ASI
ASJ,Amami Airport,28.431206,129.7122505,ASJ
ASK,Yamoussoukro,6.816667,-5.283333,ASK
ASL,Harrison County,32.55,-94.38333,ASL
ASM,Asmara International Airport,15.2932452,38.91610962,ASM
ASN,Talladega,33.433334,-86.1,ASN
ASO,Asosa Airport,10.047222,34.536667,ASO
ASP,Alice Springs Airport,-23.8062855,133.897735,ASP
ASQ,Austin,39.4664739,-117.1970824,ASQ
ASR,Kayseri Airport,38.77347525,35.49468493,ASR
ASS,Arathusa Safari Lodge,-24.7410105,31.5185186,ASS
AST,Astoria,46.15642245,-123.88301,AST
ASU,Silvio Pettirossi International Airport,-25.2355931,-57.51563884,ASU
ASV,Amboseli,-2.64532555,37.24857864,ASV
ASW,Aswan Airport,23.96342585,32.82937355,ASW
ASX,Ashland,46.55,-90.916664,ASX
ASY,Ashley,46.033333,-99.36667,ASY
ASZ,Asirim,-5.866667,150.36667,ASZ
ATA,Anta,-9.34818315,-77.59829151,ATA
ATB,Atbara,17.7068787,34.05635033,ATB
ATC,Arthur's Town,24.6302173,-75.675918,ATC
ATD,Atoifi,-8.872891,161.0112714,ATD
ATE,Antlers,34.233334,-95.61667,ATE
ATF,Chachoan,-1.083333,-78.7,ATF
ATG,Attock,33.9,72.25,ATG
ATH,Eleftherios Venizelos International Airport,37.9372535,23.95462429,ATH
ATI,Artigas,-30.4,-56.50833,ATI
ATJ,Antsirabe,-19.85,47.016666,ATJ
ATK,Atqasuk Edward Burnell Sr. Memorial Airport,70.5,-157.33333,ATK
ATL,Hartsfield-Jackson Atlanta International Airport,33.63779875,-84.42927119,ATL
ATM,Altamira Airport,-3.2,-52.216667,ATM
ATN,Namatanai,-3.66958625,152.4381498,ATN
ATO,Ohio University,39.333332,-82.1,ATO
ATP,Airstrip,-3.166667,142.28334,ATP
ATQ,Sri Guru Ram Dass Jee International Airport,31.70858515,74.80044741,ATQ
ATR,Mouakchott,20.499443,-13.046389,ATR
ATS,Artesia,32.8525152,-104.4664108,ATS
ATT,Atmautluak Airport,60.8631043,-162.2734311,ATT
ATU,Casco Cove,52.825832,173.17278,ATU
ATV,Ati,13.2398308,18.31542056,ATV
ATW,Outagamie County Regional Airport,44.25659495,-88.52169599,ATW
ATX,Atbasar,51.8517097,68.3655586,ATX
ATY,Watertown Airport,44.9126175,-97.14845997,ATY
ATZ,Assiut Airport,27.033333,31,ATZ
AUA,Reina Beatrix International Airport,12.502222,-70.013885,AUA
AUB,Itauba Airport,-11.878603,-55.581735,AUB
AUC,Arauca Airport,7.06803755,-70.73450091,AUC
AUD,Augustus Downs,-18.5149994,139.878006,AUD
AUE,Abu Rudeis,28.90059595,33.20053351,AUE
AUF,Auxerre Branches,47.8498956,3.498388157,AUF
AUG,Augusta Airport,44.318054,-69.79667,AUG
AUH,Abu Dhabi International Airport,24.43189915,54.64197668,AUH
AUI,Aua Island,-1.4610532,143.0644713,AUI
AUJ,Ambunti,-4.21583375,142.8233559,AUJ
AUK,Alakanuk Airport,62.689167,-164.61084,AUK
AUL,Aur Island,8.1452799,171.1730042,AUL
AUM,Austin,43.666668,-92.98333,AUM
AUN,Auburn,38.9,-121.066666,AUN
AUO,Auburn-Opelika,32.63333,-85.5,AUO
AUP,Agaun,-9.983333,149.58333,AUP
AUQ,Hiva Oa Airport,-9.76667795,-139.0097149,AUQ
AUR,Aurillac Airport,44.8975,2.418056,AUR
AUS,Austin-Bergstrom International Airport,30.19348925,-97.66500964,AUS
AUT,Atauro,-8.2435667,125.6066862,AUT
AUU,Aurukun Mission,-13.166667,142.25,AUU
AUV,Aumo,-5.7278249,148.4458293,AUV
AUW,Municipal,44.923332,-89.623055,AUW
AUX,Araguaina Airport,-7.2,-48.2,AUX
AUY,Aneityum,-20.333332,169.66667,AUY
AUZ,Municipal Airport,41.75,-88.316666,AUZ
AVA,An Shun/Huang Guo Shu Airport,26.257221,105.87278,AVA
AVB,Aviano,46.03136845,12.60204762,AVB
AVG,Auvergne,-15.6852565,130.0083823,AVG
AVI,Maximo Gomez,22.025,-78.79139,AVI
AVK,Arvaikheer,46.2484762,102.8046924,AVK
AVL,Asheville Regional Airport,35.4364233,-82.54088095,AVL
AVN,Avignon-Caumont Airport,43.9,4.9,AVN
AVO,Municipal,27.6,-81.51667,AVO
AVP,Wilkes-Barre/Scranton International Airport,41.33709205,-75.72257123,AVP
AVR,Alverca,38.8833008,-9.0300999,AVR
AVU,Avu Avu,-9.833333,160.38333,AVU
AVV,Avalon Airport,-38.0415747,144.4722515,MEL
AVW,Avra Valley,32.4113732,-111.2174879,TUS
AVX,Avalon Bay,33.341667,-118.31528,AVX
AWA,Awassa,7.0643514,38.4910115,AWA
AWB,Awaba Airport,-8.016667,142.75,AWB
AWD,Aniwa,-19.25,169.5,AWD
AWE,Alowe,-0.75,9.45,AWE
AWK,Wake Island,19.28335215,166.633617,AWK
AWM,Municipal,35.13333,-90.183334,AWM
AWN,Alton Downs,-26.25,138.66667,AWN
AWP,Austral Downs Airport,-20.4940024,137.7652929,AWP
AWR,Awar,-4.124167,144.87029,AWR
AWZ,Ahwaz Airport,31.3375148,48.76183763,AWZ
AXA,Clayton J. Lloyd International Airport,18.2054832,-63.05608188,AXA
AXB,Alexandria Bay,44.2525,-75.90139,AXB
AXC,Aramac,-22.95728355,145.2483286,AXC
AXD,Demokritos Airport,40.85631045,25.9553406,AXD
AXE,Xanxere,-26.8749455,-52.37339732,AXE
AXF,Alxa Left Banner,38.7476971,105.586124,AXF
AXG,Algona,43.0778426,-94.2714143,AXG
AXJ,Amakusa,32.4822166,130.15846,AXJ
AXK,Ataq,13.866667,46.3,AXK
AXL,Alexandria,-19.083332,136.66667,AXL
AXM,El Eden Airport,4.452869,-75.76804,AXM
AXN,Alexandria,45.86722,-95.394165,AXN
AXO,Bandar Udara Pantar,-8.244694,124.219278,AXO
AXP,Springpoint Airport,22.45,-73.96667,AXP
AXR,Arutua Airport,-15.25,-146.75,AXR
AXS,Altus/Quartz Mountain Regional Airport,34.69881,-99.33847,LTS
AXT,Akita Airport,39.614616,140.2193503,AXT
AXU,Axum Airport,14.120833,38.716667,AXU
AXV,Neil Armstrong,40.566666,-84.2,AXV
AXX,Angel Fire,36.4202498,-105.2910646,AXX
AYA,Ayapel,8.3,-75.15,AYA
AYC,Ayacucho,8.6021333,-73.6131384,AYC
AYD,Alroy Downs,-19.3,135.95,AYD
AYE,AAF Heliport,42.55,-71.6,AYE
AYG,Yaguara,1.533333,-73.933334,AYG
AYI,Yari,-0.333333,-72.333336,AYI
AYJ,Maharishi Valmiki International Airport,26.748034,82.150781,AYJ
AYK,Arkalyk,50.3151662,66.94696205,AYK
AYL,Anthony Lagoon,-18.0197941,135.5420203,AYL
AYM,Yas Island SPB,24.467,54.6103,AUH
AYN,Anyang Airport,36.13225015,114.3410297,AYN
AYO,Ayolas,-27.36826105,-56.85414431,AYO
AYP,Yanamilla Airport,-13.197222,-74.24722,AYP
AYQ,Connellan Airport,-25.18184745,130.9757678,AYQ
AYR,Ayr,-19.5942228,147.3270922,AYR
AYS,Ware County,31.24847785,-82.39377481,AYS
AYT,Antalya Airport,36.89994245,30.79819145,AYT
AYU,Aiyura,-6.3366412,145.9029898,AYU
AYW,Ayawasi,-1.2,132.5,AYW
AYX,Gerardo Pérez Pinedo,-10.72845785,-73.76907296,AYX
AYY,Arugam Bay SPB,6.86,81.82388889,AYY
AYZ,Zahns,40.666668,-73.416664,AYZ
AZA,Phoenix-Mesa Gateway Airport,33.30591455,-111.6526441,PHX
AZB,Amazon Bay,-10.15,148.81667,AZB
AZD,Yazd Airport,31.903603,54.283264,AZD
AZG,Apatzingan,19.068056,-102.352776,AZG
AZH,Azamgarh Airport,26.153333,83.118333,AZH
AZI,Bateen,24.419167,54.451668,AUH
AZJ,Zhenjiang Dalu,31.91226656,119.7839565,AZJ
AZL,Fazenda Tucunare Airport,-13.465528,-58.866935,AZL
AZN,Andizhan Airport,40.7265439,72.29303829,AZN
AZO,Kalamazoo Battle Creek International Airport,42.2307865,-85.55104192,AZO
AZP,Atizapan,19.416668,-99.1,MEX
AZR,Adrar Airport,27.883333,-0.283333,AZR
AZS,Samaná El Catey International,19.270555,-69.736946,AZS
AZT,Zapatoca,6.866667,-73.25,AZT
AZZ,Ambriz,-7.883333,13.15,AZZ
BAA,Bialla,-5.33150125,151.0096216,BAA
BAB,Beale AFB,39.15,-121.583336,MYV
BAC,Barranca De Upia,4.5728352,-72.9754852,BAC
BAD,Barksdale AFB,32.5,-93.666664,SHV
BAE,Barcelonnette,44.3871772,6.608085546,BAE
BAF,Barnes,42.13333,-72.75,BAF
BAG,Loakan,16.375076,120.6192708,BAG
BAH,Bahrain International Airport,26.2697012,50.63290321,BAH
BAI,Buenos Aires,9.166667,-83.333336,BAI
BAJ,Bali,-4.833333,149.13333,BAJ
BAL,Batman Airport,37.916668,41.083332,BAL
BAM,Lander County,40.63333,-116.933334,BAM
BAN,Basongo,-4.3151816,20.4142387,BAN
BAO,Udorn,17.385,102.79278,BAO
BAP,Baibara,-10.333333,149.75,BAP
BAQ,E Cortissoz Airport,10.886398,-74.77618,BAQ
BAR,Baker AAF,55.333332,-133.6,BAR
BAS,Balalae,-6.9911804,155.8855471,BAS
BAT,Airport Chafei Amsei,-20.55,-48.55,BAT
BAU,Bauru Airport,-22.3450535,-49.05328146,BRI
BAV,Baotou Airport,40.56068065,109.9999814,BAV
BAW,Biawonque,-0.666667,146.35,BAW
BAX,Barnaul Gherman Titov International Airport,53.3635611,83.55045362,BAX
BAY,Baia Mare,47.65,23.466667,BAY
BAZ,Barbelos,-0.966944,-62.933613,BAZ
BBA,Teniente Vidal Airport,-45.916668,-71.695,BBA
BBB,Benson Municipal Airport,45.331944,-95.650556,BBB
BBC,Bay City,28.983334,-95.96667,BBC
BBD,Curtis Field,31.133333,-99.333336,BBD
BBF,Burlington,42.5,-71.183334,BBF
BBG,Butaritari,3.166667,172.75,BBG
BBH,Barth,54.33965175,12.71262634,BBH
BBI,Biju Patnaik International Airport,20.25229545,85.81348472,BBI
BBJ,Bitburg Air Base,49.946165,6.565966669,BBJ
BBK,Kasane Airport,-17.83045705,25.16436706,BBK
BBL,Ballera Airport,27.408333,141.808333,BBL
BBM,Battambang,13.0956576,103.2269494,BBM
BBN,Bario Airport,3.683333,115.46667,BBN
BBO,Berbera,10.419444,45.00639,BBO
BBP,Bembridge,50.6791033,-1.109752386,BBP
BBQ,Barbuda,17.555555,-61.765,BBQ
BBR,Baillif,16.01391785,-61.74331842,BBR
BBS,Blackbushe,51.3228059,-0.8405417,BBS
BBT,Berberati,4.2228219,15.78601959,BBT
BBU,Baneasa,44.50029205,26.09022832,BUH
BBV,Hkg,4.666667,-6.95,BBV
BBW,Broken Bow,41.4,-99.63333,BBW
BBX,Wings Field,40.136665,-75.2675,BBX
BBY,Bambari,5.84805,20.6470806,BBY
BBZ,Zambezi,-13.5365145,23.10703183,BBZ
BCA,Baracoa,20.35,-74.5,BCA
BCB,Virginia Tech,37.20921745,-80.41201042,BCB
BCC,Bear Creek,63.571667,-156.144167,BCC
BCD,Bacolod-Silay International Airport,10.644815,122.93359,BCD
BCE,Bryce,37.70752165,-112.1501399,BCE
BCF,Bouca,6.75,18.416668,BCF
BCG,Bemichi,6.55,-58.55,BCG
BCH,Cakung International,-8.491667,126.39972,BCH
BCI,Barcaldine Airport,-23.56550565,145.3020629,BCI
BCJ,Baca Grande,39,-106,BCJ
BCK,Bolwarra,-17.3882999,144.1690063,BCK
BCL,Barra Colorado,10.833333,-82.96667,BCL
BCM,Bacau Airport,46.59861,26.881945,BCM
BCN,Barcelona-El Prat Airport,41.29694395,2.079047363,BCN
BCO,Jinka,5.783333,36.55,BCO
BCP,Bambu,-5.85,146.48334,BCP
BCQ,Brack,27.683332,14.216667,BCQ
BCR,Boca Do Acre,-8.75,-67.38333,BCR
BCS,Southern Seaplane,29.966667,-90,BCS
BCT,Boca Raton Airport,26.35,-80.083336,BCT
BCU,Bauchi,10.366667,9.8,BCU
BCV,Belmopan,17.269211,-88.7754724,BCV
BCW,Benguera Island,-21.884722,35.425,BCW
BCX,Beloreck,53.933334,58.333332,BCX
BCY,Bulchi,6.216667,36.666668,BCY
BCZ,Bickerton Island,-13.783333,137.8,BCZ
BDA,L.F. Wade International Airport,32.3616236,-64.66575514,BDA
BDB,Bundaberg Airport,-24.90353975,152.3196524,BDB
BDC,Barra Do Corda,-5.466667,-45.266666,BDC
BDD,Badu Island,-10.14901485,142.1730593,BDD
BDE,Baudette,48.7232658,-94.6044845,BDE
BDF,Rinkenberger,41.183334,-89.65,BDF
BDG,Blanding,37.581466,-109.480294,BDG
BDH,Bandar Lengeh,26.53298565,54.82975543,BDH
BDI,Bird Island,-3.7242605,55.20523768,BDI
BDJ,Syamsudin Noor International Airport,-3.44028625,114.7565086,BDJ
BDK,Bondoukou,8.0151654,-2.763268016,BDK
BDL,Bradley International Airport,41.9405835,-72.68501994,BDL
BDM,Bandirma,40.31775555,27.98138696,BDM
BDN,Talhar,24.633333,68.9,BDN
BDO,Husein Sastranegara Airport,-6.89951685,107.5760475,BDO
BDP,Bhadrapur Airport,26.5707714,88.07832041,BDP
BDQ,Vadodara Airport,22.33681675,73.22706887,BDQ
BDR,Igor I. Sikorsky Memorial,41.16271485,-73.12617523,BDR
BDS,Brindisi - Salento Airport,40.661605,17.94857755,BDS
BDT,Gbadolite,4.083333,22.45,BDT
BDU,Bardufoss Airport,69.05482565,18.54066538,BDU
BDV,Moba,-7,29.8,BDV
BDW,Bedford Downs,-17.2872764,127.464074,BDW
BDX,Broadus,45.466667,-105.36667,BDX
BDY,State,43.11667,-124.416664,BDY
BDZ,Baindoung,-6.34697415,146.9418623,BDZ
BEA,Bereina,-8.65,146.48334,BEA
BEB,Benbecula Airport,57.4807797,-7.365274894,BEB
BEC,Beech,37.683334,-97.333336,ICT
BED,Hanscom Field,42.46795055,-71.28436914,BED
BEE,Beagle Bay,-16.966667,122.666664,BEE
BEF,Bluefields,11.9910456,-83.77366038,BEF
BEG,Belgrad Nikola Tesla Airport,44.81827305,20.30236961,BEG
BEH,Ross Field,42.127777,-86.42833,BEH
BEI,Beica,9.39096515,34.51957774,BEI
BEJ,Kalimarau Airport,2.166667,117.7,BEJ
BEK,Bareli,26.216667,81.23333,BEK
BEL,Val De Cans International Airport,-1.3798578,-48.4796461,BEL
BEM,Beni Mellal Airport,32.40255875,-6.315766147,BEM
BEN,Benina International,32.1011324,20.27332791,BEN
BEO,Belmont,-33.033333,151.66667,NTL
BEP,Bellary,15.16220255,76.88153286,BEP
BEQ,Honington,52.34289805,0.770808943,BEQ
BER,Berlin Brandenburg Airport,52.3976851,13.5367764,BER
BES,Brest Bretagne Airport,48.4428384,-4.4197626,BES
BET,Bethel Airport,60.78043015,-161.8402619,BET
BEU,Bedourie,-24.23,139.445,BEU
BEV,Beer Sheba,31.25,34.8,BEV
BEW,Beira Airport,-19.79742665,34.91058303,BEW
BEX,Benson RAF Station,51.63333,-1.083333,BEX
BEY,Beirut-Rafic Hariri International Airport,33.8180749,35.49080523,BEY
BEZ,Beru,-1.35472,176.0070038,BEZ
BFA,Bahia Negra,-20.2311349,-58.17057022,BFA
BFB,Blue Fox Bay,58.183334,-152.13333,BFB
BFC,Bloomfield,-15.8736,145.3300018,BFC
BFD,Bradford Airport,41.802223,-78.63944,BFD
BFE,Bielefeld,52.016666,8.55,BFE
BFF,Western Nebraska Regional Airport,41.87685875,-103.5949185,BFF
BFG,Bullfrog Basin,37.5458239,-110.713199,BFG
BFH,Bacacheri,-25.4048327,-49.23165095,BFH
BFI,Boeing Field International Airport,47.5371,-122.3037,SEA
BFJ,Bijie Airport,27.300278,105.301389,BFJ
BFK,Buffalo Municipal Airport,39.733334,-104.86667,DEN
BFL,Meadows Field Airport,35.4372678,-119.0592237,BFL
BFM,Mobile Downtown Airport,30.683332,-88.23333,MOB
BFN,Bram Fischer International Airport,-29.0922444,26.29668178,BFN
BFO,Buffalo Range,-21.009167,31.579166,BFO
BFP,Beaver Falls,40.766666,-80.4,BFP
BFQ,Bahia Pinas,7.583333,-78.166664,BFQ
BFR,Virgil I Grissom Municipalcipal,38.86667,-86.48333,BFR
BFS,Belfast International Airport,54.6616469,-6.2161746,BFS
BFT,County,32.41083,-80.635,BFT
BFU,Bengbu,32.95,117.333336,BFU
BFV,Buri Ram Airport,15.2251616,103.2477758,BFV
BFW,Sidi Belabbes,35.171665,-0.589444,BFW
BFX,Bafoussam,5.483333,10.4,BFX
BFY,Bengbu Tenghu Airport,33.166,117.057,BFY
BGA,Palonegro International Airport,7.12665205,-73.18298397,BGA
BGB,Booue,-0.1072205,11.94279,BGB
BGC,Braganca Airport,41.816666,-6.75,BGC
BGD,Borger,35.6887659,-101.394019,BGD
BGE,Decatur County,30.916668,-84.583336,BGE
BGF,Bangui Airport,4.396111,18.520279,BGF
BGG,Bingol Airport,38.8605985,40.59243578,BGG
BGH,Abbaye,16.633333,-14.2,BGH
BGI,Grantley Adams International Airport,13.0772788,-59.48794598,BGI
BGJ,Borgarfjordur Eystri,66,-14.5,BGJ
BGK,Big Creek,16.5201288,-88.40988534,BGK
BGL,Baglung,28.2127945,83.6656309,BGL
BGM,Greater Binghamton Airport,42.2106484,-75.98155093,BGM
BGN,Belaya Gora Airport,68.538056,146.185833,BGN
BGO,Bergen Airport,60.29619625,5.219901375,BGO
BGP,Bongo,-1.65,13.433333,BGP
BGQ,Big Lake,61.5352778,-149.8119444,BGQ
BGR,Bangor International Airport,44.8072619,-68.81941486,BGR
BGS,Webb AFB,32.385555,-101.48333,HCA
BGT,Bagdad,34.5932537,-113.1728287,BGT
BGU,Bangassou,4.78594655,22.78014567,BGU
BGV,Bento Goncalves,-29.166668,-51.516666,BGV
BGW,Baghdad International Airport,33.2638222,44.2327947,BGW
BGX,Airport Cmdt. Gustavo Kraemer,-31.39099725,-54.11283816,BGX
BGY,Orio al Serio International Airport,45.67095925,9.698763471,MIL
BGZ,Braga,41.55,-8.433333,BGZ
BHA,Bahia De Caraquez,-0.6,-80.416664,BHA
BHB,Bar Harbor Airport,44.44889,-68.361664,BHB
BHC,Bhurban Heliport,33.925,73.433334,BHC
BHD,George Best Belfast City Airport,54.62032935,-5.869819381,BFS
BHE,Woodbourne Airport,-41.5172616,173.8693538,BHE
BHF,Bahia Cupica,6.6940746,-77.4946873,BHF
BHG,Brus Laguna,15.7357862,-84.5428876,BHG
BHH,Bisha Airport,19.994509,42.618484,BHH
BHI,Comandante Airport,-38.730556,-62.150555,BHI
BHJ,Rudra Mata Airport,23.2756868,69.66374549,BHJ
BHK,Bukhara Airport,39.77495605,64.48141101,BHK
BHL,Bahia Angeles,28.95,-113.55,BHL
BHM,Birmingham-Shuttlesworth International Airport,33.5635078,-86.75154127,BHM
BHN,Beihan,14.7819996,45.7201004,BHN
BHO,Raja Bhoj Airport,23.284761,77.34177,BHO
BHP,Bhojpur,27.1473179,87.05143681,BHP
BHQ,Broken Hill Airport,-32.00625895,141.4708936,BHQ
BHR,Bharatpur Airport,27.676911,84.42889698,BHR
BHS,Raglan Airport,-33.41387,149.65518,BHS
BHT,Brighton Downs,-23.3684564,141.5790509,BHT
BHU,Bhavnagar Airport,21.7528163,72.18697803,BHU
BHV,Bahawalpur Airport,29.4,71.683334,BHV
BHW,Bhagatanwala Airport,32.0561,72.9484,SGI
BHX,Birmingham International Airport,52.45252,-1.733256,BHX
BHY,Beihai Fucheng Airport,21.5391801,109.2917396,BHY
BIA,Bastia Poretta Airport,42.55466885,9.481946623,BIA
BIB,Baidoa,3.1035313,43.63118544,BIB
BIC,Aérodrome de Belle Île,47.3255706,-3.199652228,BIC
BID,Block Island,41.16823955,-71.57745157,BID
BIE,Beatrice,40.2996235,-96.74932562,BIE
BIF,Biggs AAF,31.75,-106.48333,ELP
BIG,Intermediate Field,64.06778,-145.73277,BIG
BIH,Bishop,37.373333,-118.365,BIH
BII,Enyu Airfield,11.5225,165.5650024,BII
BIJ,Biliau,-5.583333,146.2,BIJ
BIK,Mokmer Airport,-1.18846795,136.1066715,BIK
BIL,Billings Logan International Airport,45.80923485,-108.5476752,BIL
BIM,Bimini International Airport,25.7,-79.28333,BIM
BIN,Bamiyan,34.8093654,67.81759461,BIN
BIO,Bilbao Airport,43.3017207,-2.919129659,BIO
BIP,Bulimba,-16.15,143.75,BIP
BIQ,Biarritz - Anglet - Bayonne Airport,43.472416,-1.531242,BIQ
BIR,Biratnagar Airport,26.434723,87.28333,BIR
BIS,Bismarck Airport,46.7732585,-100.7471637,BIS
BIT,Baitadi,29,80.5,BIT
BIU,Bildudalur,65.833336,-23.983334,BIU
BIV,Bria,6.5277801,21.9894009,BIV
BIW,Billiluna,-19.566668,127.166664,BIW
BIX,Keesler AFB,30.4094294,-88.91886497,BIX
BIY,Bisho,-32.89788125,27.27945577,BIY
BIZ,Bimin,-5.2893777,142.0140946,BIZ
BJA,Bejaia Airport,36.7129239,5.073719492,BJA
BJB,Bojnord,37.49078845,57.30289282,BJB
BJC,Jeffco,39.9121533,-105.1071572,BJC
BJD,Bakkafjordur,66.066666,-14.75,BJD
BJE,Baleela,11.19957815,28.5225696,BJE
BJF,Batsfjord Airport,70.5993908,29.68847702,BJF
BJG,Bolaang,-0.95,122.1,BJG
BJH,Bajhang,29.55,81.25,BJH
BJI,Bemidji Airport,47.5101068,-94.92982435,BJI
BJJ,Wayne County,40.8,-81.933334,BJJ
BJK,Benjina,-6.06609595,134.2739716,BJK
BJL,Yundum International Airport,13.336338,-16.64950257,BJL
BJM,Bujumbura Melchior Ndadaye International Airport,-3.32,29.32,BJM
BJN,Bajone,-17.183332,38.083332,BJN
BJO,Bermejo,-22.866667,-64.333336,BJO
BJP,Braganca Paulista,-22.9795982,-46.53679707,BJP
BJQ,Bahja Airport,19.87305556,56.06777778,BJQ
BJR,Bahar Dar Airport,11.603292,37.32324,BJR
BJT,Bentota River,6.483333,79.98333,BJT
BJU,Bajura Airport,29.366667,81.333336,BJU
BJV,Milas-Bodrum Airport,37.24952535,27.67212809,BJV
BJW,Bajawa Soa Airport,-8.766667,120.98333,BJW
BJX,Guanajuato International Airport,20.9934103,-101.4812008,BJX
BJY,Batajnica,44.9372722,20.24982459,BEG
BJZ,Badajoz Airport,38.891666,-6.82,BJZ
BKA,Bykovo,55.433334,37.966667,MOW
BKB,Bikaner,28.016666,73.3,BKB
BKC,Buckland Airport,65.9815616,-161.1492319,BKC
BKD,Stephens County,32.7183179,-98.8921334,BKD
BKE,Baker,44.838333,-117.81,BKE
BKF,Lake Brooks SPB,58.6,-156.23334,BKF
BKG,Branson,36.52780005,-93.19781658,BKG
BKH,Barking Sands PMRF,21.966667,-159.71666,BKH
BKI,Kota Kinabalu International Airport,5.9336121,116.0497893,BKI
BKJ,Boke,10.966667,-14.283333,BKJ
BKK,Suvarnabhumi Airport,13.68187665,100.7485803,BKK
BKL,Burke Lakefront Airport,41.5188169,-81.68113241,CLE
BKM,Bakalalan,3.966667,115.61667,BKM
BKN,Balkanabat Airport,39.48291995,54.36155209,BKN
BKO,Bamako-Senou International Airport,12.5353304,-7.94876504,BKO
BKP,Barkly Downs,-20.4905978,138.4727656,BKP
BKQ,Blackall Airport,-24.42789765,145.4362532,BKQ
BKR,Bokoro,12.416667,17.233334,BKR
BKS,Fatmawati Soekarno Airport,-3.8623723,102.3376894,BKS
BKT,Blackstone AAF,37.066666,-78,BKT
BKU,Betioky,-23.7329998,44.3889999,BKU
BKV,Bailing Airport,41.656944,110.3125,BKV
BKW,Beckley Airport,37.7945921,-81.12226647,BKW
BKX,Brookings,44.303333,-96.81111,BKX
BKY,Kavumu,-2.3173469,28.8101889,BKY
BKZ,Bukoba Airport,-1.33063155,31.82048419,BKZ
BLA,General Jose Antonio Anzoategui International Airport,10.10716495,-64.68773383,BLA
BLB,Panama Pacifico Airport,8.973056,-79.5575,BLB
BLC,Bamenda,5.897222,10.031667,BLC
BLD,Boulder City,35.983334,-114.833336,LAS
BLE,Dala Airport,60.42165855,15.51485581,BLE
BLF,Princeton,37.295834,-81.20805,BLF
BLG,Belaga,2.7,113.78333,BLG
BLH,Blythe,33.6206368,-114.7191041,BLH
BLI,Bellingham International Airport,48.79368955,-122.5359569,BLI
BLJ,Batna Airport,35.566666,6.183333,BLJ
BLK,Blackpool Airport,53.77322885,-3.037190088,BLK
BLL,Billund Airport,55.740737,9.160391884,BLL
BLM,Monmouth Executive Airport,40.183334,-74.01667,BLM
BLN,Benalla,-36.55227455,146.0099132,BLN
BLO,Blonduos,65.6435941,-20.28873091,BLO
BLP,Bellavista,-16.583332,-69.416664,BLP
BLQ,Guglielmo Marconi Airport,44.529266,11.293289,BLQ
BLR,Kempegowda International Airport,13.196697,77.70758656,BLR
BLS,Bollon,-28.0507728,147.4808484,BLS
BLT,Blackwater,-23.6022957,148.8078454,BLT
BLU,Blue Canyon,39.2743038,-120.7095718,BLU
BLV,Belleville,38.65178,-89.85183,BLV
BLW,Bellows Field,21.333332,-157.7,BLW
BLX,Belluno,46.1663423,12.24894408,BLX
BLY,Belmullet,54.2227106,-10.0309688,BLY
BLZ,Chileka Airport,-15.67607545,34.96706138,BLZ
BMA,Bromma Airport,59.3546192,17.94474046,STO
BMB,Bumba,2.18408715,22.47795269,BMB
BMC,Brigham City,41.5347533,-112.0604949,BMC
BMD,Belo,-20.733334,44.05,BMD
BME,Broome Airport,-17.9492125,122.2306943,BME
BMF,Bakouma,5.6947471,22.801065,BMF
BMG,Bloomington,39.14,-86.61472,BMG
BMH,Bomai,-6.416667,144.58333,BMH
BMI,Central Illinois Regional Airport,40.4733557,-88.91480265,BMI
BMJ,Baramita,6.75,-60,BMJ
BMK,Borkum,53.59522935,6.709057878,BMK
BML,Berlin Municipal Airport,44.57479855,-71.17547495,BML
BMM,Bitam,2.0762485,11.49374437,BMM
BMN,Bamerny,37.1,43.266666,BMN
BMO,Bhamo,24.2708581,97.24735139,BMO
BMP,Brampton Island,-20.783333,149.23334,BMP
BMQ,Bamburi,-4.5,39.833332,BMQ
BMR,Baltrum,53.7248567,7.3732427,BMR
BMS,Brumado,-14.233333,-41.63333,BMS
BMT,Beaumont Municipalcipal,30.083332,-94.1,BPT
BMU,Sultan Muhammad Salahuddin Airport,-8.5,118.916664,BMU
BMV,Phung-Duc Airport,12.666667,108.05,BMV
BMW,Bordj Badji Mokhtar,21.316668,1.033333,BMW
BMX,Big Mountain,59.3622374,-155.2515943,BMX
BMY,Belep Island,-19.75,163.66667,BMY
BMZ,Bamu,-7.8469898,143.241454,BMZ
BNA,Nashville International Airport,36.11958985,-86.68308703,BNA
BNB,Boende,-0.233056,20.87,BNB
BNC,Beni,0.566667,29.466667,BNC
BND,Bandar Abbas International Airport,27.22203645,56.3785686,BND
BNE,Brisbane Airport,-27.3874138,153.1214765,BNE
BNF,Warm Spring Bay SPB,57,-135,BNF
BNG,Banning,33.9231279,-116.85053,BNG
BNH,Barnes,41.766666,-72.683334,HFD
BNI,Benin City Airport,6.3171425,5.599650574,BNI
BNK,Ballina Byron Airport,-28.83744645,153.556436,BNK
BNL,Barnwell Regional,33.2604761,-81.383034,BNL
BNM,Bodinumu,-9.116667,147.61667,BNM
BNN,Bronnoysund Airport Bronnoy,65.4595318,12.2109254,BNN
BNO,Burns,43.5914,-118.9554,BNO
BNP,Bannu,33,70.666664,BNP
BNQ,Baganga,13.25,121.05,BNQ
BNR,Banfora,10.666667,-4.666667,BNR
BNS,Barinas,8.6128189,-70.21733396,BNS
BNT,Bundi,-5.75,145.45,BNT
BNU,Blumenau,-27,-49,BNU
BNV,Boana,-6.425,146.81667,BNV
BNW,Boone,42.066666,-93.88333,BNW
BNX,Banja Luka Airport,44.94291375,17.29638599,BNX
BNY,Bellona,-11.30254015,159.7991243,BNY
BNZ,Banz,-5.808333,144.61139,BNZ
BOA,Boma,-5.866667,13.066667,BOA
BOB,Motu Mute Airport,-16.44433535,-151.7525442,BOB
BOC,Bocas Del Toro,9.3404691,-82.25481516,BOC
BOD,Bordeaux Airport,44.83102,-0.70217,BOD
BOE,Boundji,-1.033333,15.383333,BOE
BOF,Bolling AFB,38.9,-77.03333,WAS
BOG,El Dorado International Airport,4.70289475,-74.14874992,BOG
BOH,Bournemouth Airport,50.78234165,-1.838333038,BOH
BOI,Boise Air Terminal (Gowen Field),43.569263,-116.22193,BOI
BOJ,Bourgas Airport,42.416668,27.283333,BOJ
BOK,Brookings State,42.05,-124.28333,BOK
BOL,Ballykelly,55,-7,BOL
BOM,Chhatrapati Shivaji International Airport,19.0901312,72.86370319,BOM
BON,Flamingo International Airport,12.133403,-68.27687,BON
BOO,Bodo Airport,67.264386,14.34774894,BOO
BOP,Bouar,6,15.666667,BOP
BOQ,Boku,-6.533333,155.35,BOQ
BOR,Bokeo International Airport,20.323889,100.165556,BOR
BOS,Logan International Airport,42.3629737,-71.01350668,BOS
BOT,Boset,-7.233333,141.08333,BOT
BOU,Bourges,47.15,2.416667,BOU
BOV,Boang,-3.366667,153.33333,BOV
BOW,Bartow,27.9,-81.833336,BOW
BOX,Borroloola,-16.07668335,136.3031001,BOX
BOY,Borgo,11.163611,-4.324444,BOY
BOZ,Bozoum,6.416667,16.583332,BOZ
BPA,Grumman,40.733334,-73.48333,BPA
BPB,Boridi,-9.133333,147.53334,BPB
BPC,Bamenda,5.916667,10.15,BPC
BPD,Bapi,-7.7435242,147.0207696,BPD
BPE,Qinhuangdao Beidaihe Airport,24,96,SHP
BPF,Batuna Aerodrome,-8.55,158.11667,BPF
BPG,Barra Do Garcas,-15.8606725,-52.39006674,BPG
BPH,Bislig,8.1938557,126.3194827,BPH
BPI,Big Piney-marbleton,42.533333,-110.11667,BPI
BPK,Biangabip,-5.52687665,141.7449407,BPK
BPL,Bole Airport,44.904232,82.024185,BPL
BPM,Begumpet,17.4540314,78.46967295,HYD
BPN,Sultan Aji Muhamad Sulaiman Airport,-1.260623,116.90082,BPN
BPS,Porto Seguro Airport,-16.4389835,-39.08336724,BPS
BPT,Jefferson County Airport,29.950832,-94.02,BPT
BPU,Beppu,33.25,131.5,BPU
BPX,Bangda Airport,30.5511304,97.10917357,BPX
BPY,Besalampy,-16.7452789,44.4803872,BPY
BQA,Baler,15,121.083336,BQA
BQB,Bussellton Regional Airport,-33.716667,115.25,BQB
BQE,Bubaque,11.3033822,-15.83910953,BQE
BQG,Bogorodskoye,52.3825564,140.4500274,BQG
BQH,Biggin Hill,51.333332,0.033333,LON
BQI,Bagani,-18.1182302,21.62397621,BQI
BQJ,Batagay,67.6462041,134.7024568,BQJ
BQK,Glynco Jetport,31.166668,-81.48333,SSI
BQL,Boulia,-22.91260715,139.9031815,BQL
BQN,Rafael Hernandez Airport,18.49346055,-67.13421587,BQN
BQO,Bouna,9.2548838,-3.033317862,BQO
BQQ,Barra,-11.083333,-43.13333,BQQ
BQS,Blagoveschensk Airport,50.4266217,127.4096845,BQS
BQT,Brest Airport,52.1088082,23.89508448,BQT
BQU,J. F. Mitchell,12.98875915,-61.26112889,BQU
BQV,Bartlett SPB,58.416668,-135.73334,GST
BQW,Balgo Hills,-20.183332,127.8,BQW
BRA,Barreiras Airport,-12.0794806,-45.00970535,BRA
BRB,Barreirinhas,-2.7574806,-42.80350775,BRB
BRC,San Carlos de Bariloche International Airport,-41.145966,-71.16109,BRC
BRD,Crow Wing County Airport,46.40507465,-94.12827993,BRD
BRE,Bremen Airport,53.0453419,8.789641689,BRE
BRF,Bradford,53.8,-1.75,LBA
BRG,Municipal,37.11667,-82.833336,BRG
BRH,Brahman,-5.7,145.36667,BRH
BRI,Palese Airport,41.1534,16.7656,BRI
BRJ,Bright,-36.7,146.93333,BRJ
BRK,Bourke,-30.083332,145.93333,BRK
BRL,Burlington Airport,40.78611,-91.12334,BRL
BRM,Barquisimeto Airport,10.04359305,-69.3561638,BRM
BRN,Bern Airport,46.91221345,7.498597417,BRN
BRO,South Padre Island International Airport,25.90889,-97.42333,BRO
BRP,Biaru,-7.533333,146.7,BRP
BRQ,Turany Airport,49.1582606,16.69080359,BRQ
BRR,North Bay Airport,57.023335,-7.440278,BRR
BRS,Bristol Airport,51.38296995,-2.718623772,BRS
BRT,Bathurst Island,-11.76157225,130.6137936,BRT
BRU,Brussels Airport,50.9010343,4.478626971,BRU
BRV,Bremerhaven,53.75,8.916667,BRV
BRW,Wiley Post-Will Rogers Memorial Airport,71.28620995,-156.7750025,BRW
BRX,Barahona,18.25182335,-71.12337032,BRX
BRY,Samuels Field,37.81677845,-85.49825864,BRY
BRZ,Borotou,8.766667,-7.5,BRZ
BSA,Bossaso,11.2778277,49.14299133,BSA
BSB,Brasilia International Airport,-15.87174755,-47.9117217,BSB
BSC,Bahia Solano,6.2030693,-77.39524355,BSC
BSD,Baoshan Airport,25.05160185,99.16459538,BSD
BSE,Sematan,1.81320515,109.7644101,BSE
BSF,Bradshaw AAF,21.383333,-157.75,BSF
BSG,Bata Airport,1.9093582,9.807491016,BSG
BSH,Brighton,50.816666,-0.116667,BSH
BSI,Blairsville,40.45,-79.28333,BSI
BSJ,Bairnsdale,-37.833332,147.63333,BSJ
BSK,Biskra Airport,34.7931774,5.734029338,BSK
BSL,EuroAirport Swiss,47.59961,7.532604,EAP
BSM,Bishe-kola,36.6556143,52.3555333,BSM
BSN,Bossangoa,6.583333,17.5,BSN
BSO,Basco Airport,20.4514501,121.9807799,BSO
BSP,Bensbach,-8.333333,141.08333,BSP
BSQ,Bisbee Municipal Airport,31.3639903,-109.883128,BSQ
BSR,Basra International Airport,30.555555,47.79139,BSR
BSS,Balsas,-7.516667,-46.05,BSS
BST,Bost,31.55956085,64.36796841,BST
BSU,Basankusu,1.2254494,19.788836,BSU
BSV,Besakoa,-15.672487,47.06196244,BSV
BSW,Boswell Bay,60.4223364,-146.1445823,BSW
BSX,Bassein,16.8136014,94.77532425,BSX
BSY,Bardera,2.329012,42.3115383,BSY
BSZ,Bartletts,58.233612,-157.35028,BSZ
BTA,Yaoundé,4.540833,13.7275,BTA
BTB,Betou,3.05,18.5,BTB
BTC,Batticaloa,7.70607375,81.6752024,BTC
BTD,Brunette Downs,-18.63357715,135.9409543,BTD
BTE,Bonthe,7,-12.008333,BTE
BTF,Salt Lake Skypark,40.88333,-111.88333,BTF
BTG,Batangafo,7.416667,18.333332,BTG
BTH,Hang Nadim International Airport,1.1219929,104.1157081,BTH
BTI,Barter Island Airport,70.1339763,-143.5825254,BTI
BTJ,Sultan Iskandar Muda International Airport,5.52946565,95.41908324,BTJ
BTK,Bratsk Airport,56.36667,101.816666,BTK
BTL,WK Kellogg Regional,42.37278,-85.26481,BTL
BTM,Butte Airport,45.95111,-112.49389,BTM
BTN,Bennettsville,34.61667,-79.683334,BTN
BTO,Botopasie,4.25,-55.45,BTO
BTP,Butler County - Kenny Scholter Field,40.85,-79.916664,BTP
BTQ,Butare,-2.595473,29.736554,BTQ
BTR,Baton Rouge Metropolitan Airport,30.5319743,-91.15037754,BTR
BTS,Bratislava Airport,48.17229025,17.21349736,BTS
BTT,Bettles,66.9157348,-151.5282119,BTT
BTU,Bintulu Airport,3.171772,113.04346,BTU
BTV,Burlington International Airport,44.4728965,-73.15146311,BTV
BTW,Batu Licin,-3,116,BTW
BTX,Betoota,-25.6916043,140.7444657,BTX
BTY,Beatty,36.9,-116.76667,BTY
BTZ,Yala Betong International Airport,5.785833,101.1475,BTZ
BUA,Buka,-5.4221082,154.6732872,BUA
BUB,Municipal,41.783333,-99.13333,BUB
BUC,Burketown,-17.7455334,139.5387049,BUC
BUD,Budapest Ferenc Liszt International Airport,47.43527295,19.25351057,BUD
BUF,Buffalo Niagara International Airport,42.9402016,-78.7307523,BUF
BUG,Gen V Deslandes,-12.606389,13.405556,BUG
BUI,Bokondini,-2,133.58333,BUI
BUJ,Ain Eddis,35.166668,4.15,BUJ
BUK,Albuq,15.833333,43.766666,BUK
BUL,Bulolo,-7.2157428,146.6508935,BUL
BUM,Butler,38.266666,-94.333336,BUM
BUN,Buenaventura,3.825,-76.995834,BUN
BUO,Burao,9.5225,45.55417,BUO
BUP,Bhatinda Airport,30.166668,74.96667,BUP
BUQ,Bulawayo Airport,-20.0133425,28.60861373,BUQ
BUR,Bob Hope Airport,34.2031703,-118.3591724,BUR
BUS,Batumi Airport,41.6068476,41.6111627,BUS
BUT,Bathpalathang Airport,27.562385,90.74767722,BUT
BUU,Muara Bungo Airport,-1.5425,102.182778,BUU
BUV,Bella Union,-30.333332,-57.083332,BUV
BUW,Baubau Airport,-5.466667,122.63333,BUW
BUX,Bunia,1.5666587,30.21727087,BUX
BUY,Bunbury,-33.316666,115.63333,BUY
BUZ,Bushehr Airport,28.9572989,50.8229405,BUZ
BVA,Beauvais-Tille Airport,49.459488,2.110815,PAR
BVB,Boa Vista Airport,2.833333,-60.666668,BVB
BVC,Rabil Airport,16.083332,-22.833332,BVC
BVD,Sea Port,53.733334,-166.31667,BVD
BVE,Laroche Airport,45.166668,1.533333,BVE
BVF,Dama,-17,178.5,BVF
BVG,Berlevag Airport,70.871648,29.03289001,BVG
BVH,Vilhena Airport,-12.6940825,-60.09875397,BVH
BVI,Birdsville,-25.89117585,139.3451788,BVI
BVJ,Bovanenkovo Airport,70.3115293,68.34863157,BVJ
BVK,Huacaraje,-13.55,-63.75,BVK
BVL,Baures,-13.583333,-63.583332,BVL
BVM,Belmonte,-15.833333,-38.916668,BVM
BVO,Bartlesville,36.7671135,-96.00918689,BVO
BVP,Bolovip,-5.383333,141.7,BVP
BVR,Esperadinha,14.86370585,-24.74640907,BVR
BVS,Breves,-1.6351127,-50.44221729,BVS
BVU,Beluga,61.1731772,-151.048254,BVU
BVV,Burevestnik AFB,44.928646,147.61337,BVV
BVW,Batavia Downs,-12.65,143.21666,BVW
BVX,Municipal,35.766666,-91.65,BVX
BVY,Beverly Municipal Airport,42.55,-70.88333,BVY
BVZ,Beverley Springs,-15,124,BVZ
BWA,Bhairawa Airport,27.5050984,83.41217482,BWA
BWB,Barrow Island,-20.783333,115.416664,BWB
BWC,Brawley,32.99082965,-115.513929,BWC
BWD,Brownwood,31.7932137,-98.956078,BWD
BWE,Braunschweig,52.266666,10.533333,BWE
BWF,Walney Island,54.12797505,-3.261356388,BWF
BWG,Warren County,36.962223,-86.42222,BWG
BWH,Butterworth,5.466667,100.3925,BWH
BWI,Baltimore/Wash International Thurgood Marshall Airport,39.179527,-76.66894,BWI
BWJ,Bawan,-6.4,146.9,BWJ
BWK,Brac,43.283333,16.683332,BWK
BWL,Blackwell,36.7958654,-97.3172658,BWL
BWM,Bowman,46.183334,-103.4,BWM
BWN,Brunei International Airport,4.9423855,114.9290823,BWN
BWO,Balakovo,51.8557388,47.74207318,BWO
BWP,Bewani,-3.016667,141.15,BWP
BWQ,Brewarrina,-29.95,146.86667,BWQ
BWS,Blaine,48.966667,-122.833336,BWS
BWT,Burnie Wynyard Airport,-40.9987056,145.7358766,BWT
BWU,Sydney Bankstown,-33.92424555,150.9900744,SYD
BWW,Las Brujas Airport,22.62129974,-79.14720154,BWW
BWX,Bandar Udara Internasional Banyuwangi,-8.3104548,114.3378646,BWX
BXA,George R Carr,30.933332,-89.88333,BXA
BXB,Babo,-2.52683255,133.4411824,BXB
BXD,Bade,-7.166667,139.5,BXD
BXE,Bakel,14.84636185,-12.46959728,BXE
BXF,Belburn,-17.545555,128.30779,BXF
BXG,Bendigo,-36.734722,144.30194,BXG
BXH,Balhash,46.88333,75.01667,BXH
BXI,Boundiali,8.75,-6.5,BXI
BXJ,Burundai,43.5,76.95,ALA
BXK,Buckeye Municipal,33.36667,-112.583336,BXK
BXL,Blue Lagoon,-16.75,179,BXL
BXM,Batom,-4.116667,140.85,BXM
BXN,Imsik,37.13926395,27.6675979,BJV
BXO,Buochs,46.9744444,8.3969444,BXO
BXP,Biala Podlaska,52.0073897,23.14742203,BXP
BXR,Bam,29.0890689,58.43984358,BXR
BXS,Borrego Springs,33.343334,-116.32778,BXS
BXT,Bontang,0.166667,117.5,BXT
BXU,Butuan Airport,8.95155605,125.478727,BXU
BXV,Breiddalsvik,64.7895443,-14.0381909,BXV
BXW,Harun Thohir Airport,-5.72494045,112.6769307,BXW
BXX,Borama International,9.966667,43.11667,BXX
BXY,Baikonur Krayniy Airport,45.623611,63.213889,BXY
BXZ,Bunsil,-5.7239684,147.8666061,BXZ
BYA,Boundary,64.0780556,-141.1133333,BYA
BYB,Dibaa,25.583332,56.25,BYB
BYC,Yacuiba,-21.9614105,-63.6518803,BYC
BYD,Beidah,14.133333,46.55,BYD
BYF,Albert-Bray Airport,49.9715004,2.697659969,BYF
BYG,Municipal,44.35,-106.7,BYG
BYH,Arkansas International Airport,35.964444,-89.943889,BYH
BYI,Rupert,42.54139,-113.77417,BYI
BYJ,Beja International,38.078899,-7.9324,BYJ
BYK,Bouake,7.7404244,-5.068606829,BYK
BYL,Bella Yella,7.366667,-10,BYL
BYM,C.M. de Cespedes,20.383333,-76.65,BYM
BYN,Bayankhongor,46.1,100.683334,BYN
BYO,Bonito Airport,-21.24942965,-56.45190863,BYO
BYP,Barimunya Airport,-22.67434605,119.1656029,BYP
BYQ,Bunyu,3.583333,117.833336,BYQ
BYR,Laeso Airport,57.27657225,10.99654593,BYR
BYS,Bicycle Lake AAF,35.266666,-116.566666,BYS
BYT,Bantry,51.6774381,-9.486540713,BYT
BYU,Bindlacher-Berg,49.9858371,11.6397914,BYU
BYV,Beira Lake SPB,6.927468,79.848358,CMB
BYW,Blakely Island,48.5,-123,BYW
BYX,Baniyala,-13.1977286,136.2265272,BYX
BZA,San Pedro,13.95,-84.6,BZA
BZB,Bazaruto Island,-21.534721,35.49167,BZB
BZC,Buzios,-22.77063,-41.96283749,BZC
BZD,Balranald,-34.6240084,143.5764236,BZD
BZE,Philip S.W. Goldson International Airport,17.5392339,-88.30483123,BZE
BZF,Benton Field,40.5737993,-122.4077,RDD
BZG,Bydgoszcz Airport,53.09767685,17.9787833,BZG
BZH,Bumi Hills,-16.8169994,28.3500004,BZH
BZI,Balikesir,39.6188965,27.92021925,BZI
BZJ,Bozhou Airport,33.56083333,115.9091667,BZJ
BZK,Bryansk International Airport,53.266666,34.333332,BZK
BZL,Barisal Airport,22.8039413,90.30062229,BZL
BZM,Bemolanga Airport,-17.696,45.087,BZM
BZN,Bozeman Yellowstone International Airport,45.78359005,-111.1569796,BZN
BZO,Bolzano,46.46006215,11.32608581,BZO
BZP,Bizant,-15.216667,144.63333,BZP
BZR,Beziers Vias Airport,43.324165,3.354444,BZR
BZS,Buzzards Pt S,38.863335,-77.013336,WAS
BZT,Eagle Air Park,34.89139608,-114.6160376,BZT
BZU,Buta,2.8,24.733334,BZU
BZV,Maya Maya Airport,-4.2509559,15.25393833,BZV
BZX,Bazhong Enyang Airport,31.7383789,106.6455156,BZX
BZY,Beltsy Airport,47.75,27.933332,BZY
BZZ,Raf Brize Norton,51.7511241,-1.579393301,BZZ
CAA,Catacamas,14.830556,-85.89445,CAA
CAB,Cabinda Airport,-5.59803225,12.18821141,CAB
CAC,Cascavel Airport,-24.95,-53.466667,CAC
CAD,Cadillac,44.27409395,-85.42711008,CAD
CAE,Columbia Metropolitan Airport,33.93886305,-81.11397151,CAE
CAF,Carauari,-4.87146245,-66.89752106,CAF
CAG,Cagliari Elmas Airport,39.250583,9.057312581,CAG
CAH,Kamau ,9.1768916,105.1746674,CAH
CAI,Cairo International Airport,30.1141148,31.42470226,CAI
CAJ,Canaima,6.2295804,-62.85459148,CAJ
CAK,Akron-Canton Airport,40.9152061,-81.43992419,CAK
CAL,Machrihanish Airport,55.4402788,-5.698378212,CAL
CAM,Camiri,-20.00638975,-63.52727345,CAM
CAN,Guangzhou Baiyun International Airport,23.3931854,113.3015079,CAN
CAO,Clayton,36.45,-103.183334,CAO
CAP,Cap Haitien Airport,19.7263503,-72.20026715,CAP
CAQ,Caucasia,7.6,-75.25,CAQ
CAR,Municipal,46.86667,-68.01667,CAR
CAS,Anfa,33.559723,-7.663056,CAS
CAT,Cascais Municipal Aerodrome,38.725,-9.35523,CAT
CAU,Caruaru,-8.25,-35.916668,CAU
CAV,Cazombo,-11.9,22.866667,CAV
CAW,Bartolomeu Lisandro Airport,-21.75,-41.3,CAW
CAX,Carlisle,54.93846675,-2.808367405,CAX
CAY,Felix Eboue Airport,4.82073745,-52.36305702,CAY
CAZ,Cobar,-31.53967255,145.7969561,CAZ
CBA,Corner Bay,57.716667,-135.2,CBA
CBB,J Wilsterman Airport,-17.413954,-66.178894,CBB
CBC,Cherrabun,-18.916668,125.55,CBC
CBD,Car Nicobar,9.156225,92.8215167,CBD
CBE,Greater Cumberland Regional,39.6163954,-78.76221482,CBE
CBF,Municipal,41.266666,-95.86667,CBF
CBG,Cambridge Airport,52.2,0.183333,CBG
CBH,Leger,31.647778,-2.259722,CBH
CBI,Cape Barren Island,-40.333332,148.16667,CBI
CBJ,Cabo Rojo,17.9287957,-71.64183983,CBJ
CBK,Municipal,39.4,-101.05,CBK
CBL,Ciudad Bolivar,8.128056,-63.5375,CBL
CBM,Columbus AFB,33.5,-88.416664,UBS
CBN,Penggung,-6.75,108.53333,CBN
CBO,Awang Airport,7.1644949,124.21221,CBO
CBP,Coimbra,40.2,-8.416667,CBP
CBQ,Calabar Airport,4.9796045,8.349199913,CBQ
CBR,Canberra Airport,-35.30287875,149.1918006,CBR
CBS,Oro Negro,10.383333,-71.416664,CBS
CBT,Catumbela Airport,-12.481364,13.49388365,CBT
CBU,Cottbus,51.77028,14.299167,CBU
CBV,Coban,15.4690225,-90.40646467,CBV
CBW,Campo Mourao,-24.009449,-52.3569661,CBW
CBX,Condobolin,-33.86667,148.25,CBX
CBY,Canobie,-19.4788726,140.9273389,CBY
CBZ,Cabin Creek,55.38333,-132.41667,CBZ
CCA,Chaffee AFB,35.316666,-94.3,CCA
CCB,Cable Airport,34.11242505,-117.6853958,CCB
CCC,Jardines del Rey Airport,22.5125,-78.50833,CCC
CCD,Century City,34.066666,-118.26667,LAX
CCE,Grand Case,18.05,-63.11667,SFG
CCF,Carcassonne Airport,43.216667,2.316667,CCF
CCG,Crane County Airport,31.41140455,-102.3592957,CCG
CCH,Chile Chico,-46.5823172,-71.68903562,CCH
CCI,Concordia,-27.181389,-52.050556,CCI
CCJ,Calicut International Airport,11.1363042,75.9541101,CCJ
CCK,Cocos Islands Airport,-12.166667,96.916664,CCK
CCL,Chinchilla,-26.77207445,150.6199464,CCL
CCM,Criciuma,-28.7,-49.36667,CCM
CCN,Chakcharan,34.533333,65.26667,CCN
CCO,Carimagua,4.56417,-71.3364,CCO
CCP,Carriel Sur Airport,-36.77378175,-73.06006864,CCP
CCQ,Cachoeira,-12.6,-38.966667,CCQ
CCR,Buchanan Field,37.98926635,-122.0559381,CCR
CCS,Simon Bolivar International Airport,10.60316215,-66.9966767,CCS
CCT,Colonia Catriel,-39.5,-68.916664,CCT
CCU,Netaji Subhas Chandra Bose Airport,22.64531,88.43931,CCU
CCV,Craig Cove,-16.2,167.5,CCV
CCW,Cowell,-33.63333,136.83333,CCW
CCX,Caceres,-16.066668,-57.7,CCX
CCY,Municipal,43.066666,-92.683334,CCY
CCZ,Chub Cay,25.4165151,-77.87826581,CCZ
CDA,Cooinda,-12.90328085,132.5330105,CDA
CDB,Cold Bay Airport,55.2014611,-162.7198441,CDB
CDC,Cedar City Airport,37.7003,-113.0986,CDC
CDD,Cauquira,15.32120995,-83.60406202,CDD
CDE,Caledonia,8.333333,-77.55,CDE
CDG,Charles de Gaulle Airport,49.0068908,2.571081969,PAR
CDH,Harrell Field,33.583332,-92.833336,CDH
CDI,Cachoeiro Itapemirim,-20.834752,-41.18558784,CDI
CDJ,Conceicao Do Araguaia,-8.233333,-49.283333,CDJ
CDK,Lewis,29.133333,-83.03333,CDK
CDL,Candle,65.9092649,-161.9379772,CDL
CDN,Woodward Field,34.2836534,-80.5654423,CDN
CDO,Cradock,-32.13333,25.6,CDO
CDP,Cuddapah,14.516667,78.78333,CDP
CDQ,Croydon,-18.3,142.25,CDQ
CDR,Chadron Airport,42.83845375,-103.0960598,CDR
CDS,Childress,37.416668,-100.21667,CDS
CDT,Castellon,40.2125456,0.070324047,CDT
CDU,Camden,-15.45,124.416664,CDU
CDV,Mudhole Smith Airport,60.4916501,-145.4737053,CDV
CDW,Caldwell Wright,40.833332,-74.26667,CDW
CDY,Cagayan De Sulu,7.0142323,118.495207,CDY
CDZ,Cadiz,36.533333,-6.3,CDZ
CEA,Cessna Aircraft Field,37.7,-97.333336,ICT
CEB,Mactan-Cebu International Airport,10.310328,123.9792776,CEB
CEC,Del Norte County Regional Airport,41.7814506,-124.2380711,CEC
CED,Ceduna Airport,-32.13056755,133.7073095,CED
CEE,Cherepovets Airport,59.27783665,38.02065354,CEE
CEF,Westover ARB/Metropolitan,42.183376,-72.55383,CEF
CEG,Hawarden Airport,53.1796073,-2.97286601,CEG
CEH,Chelinda,-10.5575399,33.7979301,CEH
CEI,Chiang Rai International Airport,19.9480922,99.87945679,CEI
CEK,Chelyabinsk International Airport,55.3015326,61.51286379,CEK
CEL,Cape Eleuthera,25.28389,-76.33083,CEL
CEM,Central,65.5736598,-144.777902,CEM
CEN,Ciudad Obregon Airport,27.39138415,-109.8312255,CEN
CEO,Waco Kungo,9.308333,124.73055,CEO
CEP,Concepcion,-16.233334,-62.083332,CEP
CEQ,Mandelieu,43.5479587,6.959813401,CEQ
CER,Maupertus,49.6489524,-1.467614448,CER
CES,Cessnock,-32.833332,151.35,CES
CET,Le Pontreau,47.0818923,-0.876879653,CET
CEU,Oconee County,34.683334,-82.833336,CEU
CEV,Mettle Field,39.65,-85.13333,CEV
CEW,Bob Sikes,30.7800302,-86.52231697,CEW
CEX,Chena Hot Springs,65.05,-146.16667,CEX
CEY,Calloway County,36.61667,-88.316666,CEY
CEZ,Montezuma County Airport,37.3043669,-108.6276045,CEZ
CFA,Coffee Point,58.216667,-157.5,CFA
CFB,Cabo Frio International Airport,-22.92336095,-42.07658606,CFB
CFC,Cacador,-26.78834795,-50.94005827,CFC
CFD,Coulter Field,30.666668,-96.36667,CFD
CFE,Clermont-Ferrand Auvergne Airport,45.7850077,3.160475215,CFE
CFF,Cafunfo,-8.7836103,17.9897003,CFF
CFG,Jaime Gonzalez Airport,22.14945185,-80.41432509,CFG
CFH,Clifton Hills,-27,139,CFH
CFI,Camfield,-17.0216999,131.3269958,CFI
CFK,Chlef International Airport,36.21306805,1.330621916,CFK
CFM,Conklin (Leismer) Airport,55.69372395,-111.2687884,CFM
CFN,Donegal Airport,55.0445249,-8.340897118,CFN
CFO,Confreza,-10.633333,-51.566666,CFO
CFP,Carpentaria Downs,-18.783333,144.35,CFP
CFQ,Creston Valley Airport,49.036945,-116.49834,CFQ
CFR,Carpiquet Airport,49.183437,-0.459276,CFR
CFS,Coffs Harbour Airport,-30.32310515,153.1155706,CFS
CFT,Morenci,33.05,-109.3,CFT
CFU,Ioannis Kapodistrias Airport,39.60190105,19.91403634,CFU
CFV,Municipal,37.033333,-95.61667,CFV
CGA,Craig SPB,55.478382,-133.14616,CGA
CGB,Marechal Rondon International Airport,-15.651725,-56.120266,CGB
CGC,Cape Gloucester,-5.459167,148.51584,CGC
CGD,Changde Airport,28.91920725,111.6379765,CGD
CGE,Cambridge,38.566666,-76.083336,CGE
CGF,Cuyahoga County,41.56406585,-81.48889341,CLE
CGG,Casiguran,16.083332,122.01667,CGG
CGH,Sao Paulo/Congonhas Airport,-23.626902,-46.659557,SAO
CGI,Cape Girardeau Airport,37.22471585,-89.56800318,CGI
CGJ,Chingola,-12.516667,27.883333,CGJ
CGK,Soekarno-Hatta International Airport,-6.12389155,106.6565897,JKT
CGL,Chagual Airport,-7.797222,-77.651389,CGL
CGM,Mambajao,18.9,121.916664,CGM
CGN,Cologne Bonn Airport,50.86780115,7.138887378,CGN
CGO,Zhengzhou Xinzheng Airport,34.5270534,113.8480142,CGO
CGP,Shah Amanat International Airport,22.2536779,91.81968167,CGP
CGQ,Changchun Longjia International Airport,43.902836,125.217545,CGQ
CGR,Campo Grande International Airport,-20.47157685,-54.68224625,CGR
CGS,College Park,33.666668,-84.45,CGS
CGT,Chinguitti,20.45,-12.366667,CGT
CGV,Caiguna,-32.2720286,125.4875656,CGV
CGX,Merrill C Meigs,41.85889,-87.60833,CHI
CGY,Laguindingan International Airport,8.407744,124.61157,CGY
CGZ,Municipal,32.88333,-111.75,CGZ
CHA,Chattanooga Airport,35.03238355,-85.20167789,CHA
CHB,Chilas,35.4266262,74.0862815,CHB
CHC,Christchurch International Airport,-43.4847958,172.5357543,CHC
CHD,Mucuge Airport,-13.031667,-41.444444,CHD
CHF,Jinhae,35.141201,128.6959991,CHF
CHG,Chaoyang Airport,41.539062,120.4341465,CHG
CHH,Chachapoyas,-6.2021601,-77.85583641,CHH
CHI,Chicago FSS,41.8781136,-87.6297982,CHI
CHJ,Chipinge,-20.2042729,32.6261647,CHJ
CHK,Municipal,35.05,-97.96667,CHK
CHL,Challis,44.5240137,-114.2171395,CHL
CHM,Chimbote,-9.15039295,-78.52487439,CHM
CHN,Jeonju,37.016945,127.933334,CHN
CHO,Charlottesville Albemarle Airport,38.1410056,-78.45246606,CHO
CHP,Circle Hot Springs,65.48552135,-144.6184009,CHP
CHQ,Chania International Airport,35.5296433,24.14800573,CHQ
CHR,Chateauroux,46.816666,1.7,CHR
CHS,Charleston International Airport,32.89929845,-80.03946503,CHS
CHT,Karewa,-43.8,-176.35,CHT
CHU,Chuathbaluk Airport,61.5791016,-159.2160034,CHU
CHV,Chaves,41.733334,-7.466667,CHV
CHW,Jiuhuang,39.85,98.416664,CHW
CHX,Changuinola,9.45,-82.45,CHX
CHY,Choiseul Bay Airport,-6.713787,156.39856,CHY
CHZ,State,42.583332,-121.86667,CHZ
CIA,Ciampino-G. B. Pastine International Airport,41.799065,12.590987,ROM
CIB,Ap In The Sky,33.406113,-118.41389,AVX
CIC,Chico Municipal Airport,39.79397155,-121.8547755,CIC
CID,The Eastern Iowa Airport,41.889423,-91.7003,CID
CIE,Collie,-33.36667,116.13333,CIE
CIF,Chifeng Airport,42.237392,118.91089,CIF
CIG,Craig-Moffat,40.4941717,-107.5241201,CIG
CIH,Changzhi Airport,36.24789875,113.1252851,CIH
CII,Cildir,47.90278,-112.312225,CII
CIJ,E. Beltram Airport,-11.026389,-68.75278,CIJ
CIK,Chalkyitsik,66.6486145,-143.7299015,CIK
CIL,Melsing Creek,64.90833,-163.73334,CIL
CIM,Cimitarra,6.483333,-74.11667,CIM
CIN,Carroll,42.066666,-94.86667,CIN
CIO,MCAL Lopez,-23.434444,-57.41833,CIO
CIP,Chipata,-13.5571088,32.58788876,CIP
CIQ,Chiquimula,14.85,-89.61667,CIQ
CIR,Cairo,37,-89.183334,CIR
CIS,Canton Island,-2.833333,-171.66667,CIS
CIT,Shymkent Airport,42.3,69.6,CIT
CIU,Chippewa County Airport,46.5,-84.35,SSM
CIV,Chomley,55.216667,-132.21666,CIV
CIW,Canouan Island,12.7,-61.316666,CIW
CIX,Cornel Ruiz Airport,-6.789722,-79.83222,CIX
CIY,Comiso Airport,36.99482985,14.60748815,CIY
CIZ,Coari,-4.083333,-63.13333,CIZ
CJA,Cajamarca Airport,-7.13845645,-78.48983645,CJA
CJB,Coimbatore International Airport,11.0312326,77.04169829,CJB
CJC,El Loa Airport,-22.495085,-68.90843,CJC
CJD,Candilejas,1.333333,-74.26667,CJD
CJF,Coondewanna Airport,-22.9642029,118.8123347,CJF
CJH,Chilko Lake,51.333332,-124.083336,CJH
CJJ,Cheongju Airport,36.7155563,127.4974643,CJJ
CJL,Chitral,35.8877664,71.80073745,CJL
CJM,Chumphon Airport,10.7082453,99.35410879,CJM
CJN,Gillespie Field,32.8,-116.96667,CJN
CJS,Abraham Gonzalez International Airport,31.63849375,-106.4280101,CJS
CJT,Copalar,16.1740488,-92.04572634,CJT
CJU,Jeju International Airport,33.50707105,126.4916441,CJU
CJZ,Cajazeiras Airport,-6.882778,-38.615833,CJZ
CKA,Kegelman Af,36.75,-98.35,CKA
CKB,Benedum Airport,39.295555,-80.22945,CKB
CKC,Cherkassy,49.416668,32,CKC
CKD,Crooked Creek,61.8670574,-158.1319634,CKD
CKE,Clear Lake,38.934723,-122.62222,CKE
CKG,Chongqing Jiangbei International Airport,29.72606975,106.6498306,CKG
CKH,Chokurdah Airport,70.63333,147.88333,CKH
CKI,Croker Island,-11.2,132.53334,CKI
CKK,Cherokee,36.5,-91.86667,CKK
CKL,Chkalovsky,55.88121275,38.05293114,CKL
CKM,Fletcher Field,34.2,-90.583336,CKM
CKN,Municipal,47.783333,-96.61667,CKN
CKO,Cornelio Procopio,-23.116667,-50.666668,CKO
CKR,Crane Island,48.5977402,-122.9976495,CKR
CKS,Carajas Airport,-6.11655575,-49.99774269,CKS
CKT,Sarakhs,36.5062305,61.05915046,CKT
CKU,City,60.55,-145.75,CDV
CKV,Outlaw Field,36.6195673,-87.41516535,CKV
CKW,Christmas Creek Mine,52.430557,-108.74722,CKW
CKX,Chicken,64.06816475,-141.9528389,CKX
CKY,Conakry Airport,9.57655125,-13.61307576,CKY
CKZ,Canakkale Airport,40.13450605,26.42969039,CKZ
CLA,Comilla,23.4370218,91.1880657,CLA
CLC,Metroport,29.556944,-95.1375,CLC
CLD,McClellan-Palomar Airport,33.12754605,-117.2814001,SAN
CLE,Cleveland Hopkins International Airport,41.40661855,-81.85120214,CLE
CLG,Coalinga,36.15,-120.35,CLG
CLH,Coolah,-31.833332,149.7,CLH
CLI,Clintonville,42.566666,-88.86667,CLI
CLJ,Avram Iancu Cluj International Airport,46.78630485,23.68460819,CLJ
CLK,Municipal,35.538055,-98.9325,CSM
CLL,Easterwood Airport,30.58822845,-96.36411164,CLL
CLM,Fairchild International,48.121883,-123.49511,CLM
CLN,Carolina,-7.333333,-47.45,CLN
CLO,Alfonso B. Aragon Airport,3.543056,-76.381386,CLO
CLP,Clarks Point,58.8366014,-158.5299892,CLP
CLQ,Colima Airport,19.3,-103.65,CLQ
CLR,Calipatria,33.12804795,-115.5234093,CLR
CLS,Centralia,46.67389,-122.98111,CLS
CLT,Charlotte Douglas International Airport,35.21074145,-80.94574352,CLT
CLU,Columbus Municipal,39.216667,-85.916664,CLU
CLV,Caldas Novas,-17.7247899,-48.60817423,CLV
CLW,Executive,27.976667,-82.75861,CLW
CLX,Clorinda,-25.333332,-57.666668,CLX
CLY,Sainte Catherine Airport,42.52778,8.791667,CLY
CLZ,Calabozo,8.92472605,-67.41381708,CLZ
CMA,Cunnamulla,-28.03324135,145.6239117,CMA
CMB,Bandaranaike International Airport,7.17970025,79.88399637,CMB
CMC,Camocim,-2.89492665,-40.85836649,CMC
CMD,Cootamundra,-34.6289957,148.0349871,CMD
CME,Ciudad Del Carmen Airport,18.6517384,-91.80046272,CME
CMF,Chambery,45.6352153,5.881803393,CMF
CMG,Corumba Internacional Airport,-19.0125785,-57.66975906,CMG
CMH,John Glenn Columbus International Airport,39.99705605,-82.89304061,CMH
CMI,Willard University Airport,40.0383172,-88.27156685,CMI
CMJ,Chi Mei,23.25,119.416664,CMJ
CMK,Club Makokola,-14.3,35.05,CMK
CML,Camooweal,-19.933332,138.11667,CML
CMM,Carmelita,17.4621687,-90.0538516,CMM
CMN,Mohamed V International Airport,33.36667,-7.586667,CAS
CMO,Obbia,5.3582189,48.51558636,CMO
CMP,Campo Alegre,-9.8,-36.35,CMP
CMQ,Clermont,-22.866667,147.5,CMQ
CMR,Colmar-houssen,48.10875115,7.359451563,CMR
CMS,Scusciuban,10.3138392,50.2032001,CMS
CMT,Cameta,-2.2,-49.5,CMT
CMU,Chimbu,-6.0242193,144.9704147,CMU
CMV,Coromandel,-37,175.66667,CMV
CMW,Ign Agramonte International Airport,21.418612,-77.849724,CMW
CMX,Houghton County Airport,47.16827015,-88.4865113,CMX
CMY,Fort Mccoy,44.03347,-90.77897,CMY
CMZ,Caia,-17.85,35.4,CMZ
CNA,Cananea,31,-110.333336,CNA
CNB,Coonamble,-30.98221055,148.3758498,CNB
CNC,Coconut Island,-10.0500321,143.0707893,CNC
CND,Kogalniceanu Airport,44.3644284,28.48645083,CND
CNE,Canon City,38.45,-105.23333,CNE
CNF,Tancredo Neves International Airport,-19.63339785,-43.96836942,BHZ
CNG,Parvaud,45.683334,-0.333333,CNG
CNH,Municipal,43.38333,-72.333336,CNH
CNI,Changhai,31.25,121.433334,CNI
CNJ,Cloncurry Airport,-20.668905,140.50851,CNJ
CNK,Blosser Municipal,39.548009,-97.6535883,CNK
CNL,Sindal,57.50399995,10.22919063,CNL
CNM,Cavern City Air Terminal,32.33739365,-104.2624049,CNM
CNN,Kannur International Airport,11.9172722,75.54478489,CNN
CNO,Chino,33.9739593,-117.6347929,CNO
CNP,Neerlerit Inaat Airport,70.74137595,-22.64640255,CNP
CNQ,Camba Punta Airport,-27.449722,-58.762222,CNQ
CNR,Chanaral,-26.33254,-70.60733998,CNR
CNS,Cairns Airport,-16.8777892,145.7515495,CNS
CNT,Charata,-27.2164,-61.2103,CNT
CNU,Martin Johnson,37.683334,-95.45,CNU
CNV,Canavieiras,-15.6649926,-38.9558886,CNV
CNW,TSTC Waco Airport,31.916668,-97.13333,ACT
CNX,Chiang Mai International Airport,18.76684265,98.96487809,CNX
CNY,Canyonlands Field,38.7584059,-109.748812,CNY
CNZ,Cangamba,-11.5,19,CNZ
COA,Columbia,38.03086945,-120.4143436,COA
COB,Coolibah,-15.5482998,130.9620056,COB
COC,Concordia,-31.297222,-57.996387,COC
COD,Yellowstone Regional Airport,44.52075195,-109.0218534,COD
COE,Coeur D'Alene,47.683334,-116.76667,COE
COF,Patrick AFB,28.35,-80.73333,COI
COG,Mandinga,5.08333,-76.7,COG
COH,Cooch Behar,26.32970445,89.46984059,COH
COI,Merritt Island,28.316668,-80.6,COI
COJ,Coonabarabran,-31.337221,149.27194,COJ
COK,Cochin International Airport,10.15448595,76.39248893,COK
COL,Isle Of Coll,56.61667,-6.616667,COL
COM,Coleman,31.833332,-99.433334,COM
CON,Concord,43.2,-71.53333,CON
COO,Cotonou Airport,6.3577513,2.38590508,COO
COP,Cooperstown - Westville Airport,42.7,-74.933334,COP
COQ,Choibalsan,48.13333,114.9,COQ
COR,Ingeniero Aeronautico Ambrosio L.V. Taravella International Airport,-31.31548,-64.21377,COR
COS,Colorado Springs Airport,38.8004299,-104.7032771,COS
COT,Cotulla,28.4585165,-99.22114405,COT
COU,Columbia Regional Airport,38.8168307,-92.2198931,COU
COV,Covilha,40.283333,-7.5,COV
COW,Coquimbo,-32.8,-70.63333,COW
COY,Coolawanyah,-21.85,117.75,COY
COZ,Constanza,18.9,-70.71667,COZ
CPA,A. Tubman,4.376667,-7.695556,CPA
CPB,Capurgana,8.632427,-77.35012187,CPB
CPC,Chapelco Airport,-40.066666,-71.13333,CPC
CPD,Coober Pedy Airport,-29.0412822,134.7225859,CPD
CPE,Campeche International Airport,19.835,-90.509445,CPE
CPF,Cepu,-7.15,111.583336,CPF
CPG,Carmen De Patagones,-40.833332,-63,CPG
CPH,Copenhagen Airport,55.6091282,12.65098225,CPH
CPI,Cape Orford,-5.44872185,152.0807732,CPI
CPL,Chaparral,3.716667,-75.46667,CPL
CPM,Compton,33.894444,-118.24778,CPM
CPN,Cape Rodney,-10.179823,148.3790302,CPN
CPO,Chamonate Airport,-27.29892,-70.414406,CPO
CPP,Coposa Airport,-20.75,-68.683333,CPP
CPQ,International,-22.856462,-47.111595,CPQ
CPR,Casper/Natrona County International Airport,42.9054165,-106.4645264,CPR
CPS,St. Louis Downtown Airport,38.56948535,-90.15194783,STL
CPT,Cape Town International Airport,-33.97184585,18.60211252,CPT
CPU,Cururupu,-1.821111,-44.866944,CPU
CPV,Joao Suassuna Airport,-7.27016065,-35.896097,CPV
CPX,Benjamin Rivera Noriega Airport,18.31337195,-65.30421884,CPX
CQA,Canarana Airport,-13.57509615,-52.26867718,CQA
CQD,Shahre-kord,32.29394005,50.8398898,CQD
CQF,Calais,50.9607603,1.953363139,CQF
CQM,Ciudad Real Central,38.983334,-3.916667,CQM
CQP,Cape Flattery,-18.2,147.5,CQP
CQS,Costa Marques,-12.4249231,-64.25192288,CQS
CQT,Caquetania,1.616667,-74.166664,CQT
CQW,CHERAW MUNI/LYNCH BELLINGER FLD AIRPORT,34.7129,-79.957,CQW
CRA,Craiova Airport,44.31880705,23.88910485,CRA
CRB,Collarenebri,-29.524299,148.5768224,CRB
CRC,Cartago,4.766667,-75.933334,CRC
CRD,General E. Mosconi International Airport,-45.787224,-67.462776,CRD
CRE,Grand Strand Airport,33.8112835,-78.7233511,MYR
CRF,Carnot,4.983333,15.933333,CRF
CRG,Craig Municipal,30.5,-81.666664,JAX
CRH,Cherribah,-28,152.16667,CRH
CRI,Crooked Island Airport,22.7467692,-74.17689404,CRI
CRJ,Coorabie,-31.8943996,132.2960052,CRJ
CRK,Diosdado Macapagal International (Clark International),15.18716705,120.557465,CRK
CRL,Charleroi Brussels South Airport,50.46363725,4.466173284,BRU
CRM,National Airport,12.483333,124.583336,CRM
CRO,Corcoran,36.1028011,-119.5950519,CRO
CRP,Corpus Christi International Airport,27.7702374,-97.50657535,CRP
CRQ,Caravelas,-17.75,-39.25,CRQ
CRR,Ceres,-29.916668,-61.833332,CRR
CRS,Corsicana,32.1,-96.46667,CRS
CRT,Municipal,33.13333,-91.96667,CRT
CRU,Carriacou Island,12.476431,-61.47141187,CRU
CRV,Crotone,38.99735655,17.07972119,CRV
CRW,Yeager Airport,38.37294755,-81.59421973,CRW
CRX,Roscoe Turner,34.9150009,-88.6035004,CRX
CRY,Carlton Hill,-15.466667,128.61667,CRY
CRZ,Turkmenabad,39.083332,63.61667,CRZ
CSA,Isle Of Colonsay,56.0576378,-6.243205298,CSA
CSB,Caransebes,45.41990835,22.24837132,CSB
CSC,Canas,10.766667,-85.48333,CSC
CSD,Cresswell Downs,-17.9465486,135.9131058,CSD
CSE,Crested Butte,38.86667,-106.98333,CSE
CSF,Creil,49.2514148,2.514506526,CSF
CSG,Columbus Airport,32.466667,-84.98333,CSG
CSH,Solovky,65.02944,35.733334,CSH
CSI,Casino,-28.88072745,153.0589408,CSI
CSJ,Cape St Jacques,10.033333,111,CSJ
CSK,Cap Skirring,12.39821835,-16.75089289,CSK
CSL,O Sullivan Army Air Field,35.236668,-120.63917,CSL
CSM,Sherman,35.539165,-96.933334,CSM
CSN,Carson City,39.19450805,-119.7402154,CSN
CSO,Cochstedt,51.8559128,11.41593573,CSO
CSP,Cape Spencer C G Heliport,58.19910049,-136.6390076,CSP
CSQ,Municipal,41.066666,-94.36667,CSQ
CSR,Casuarito,5.833333,-68.133333,CSR
CSS,Cassilandia,-18.983334,-51.983334,CSS
CST,Castaway,-17.5,177.5,CST
CSU,Santa Cruz Do Sul,-29.68380235,-52.41103407,CSU
CSV,Memorial,35.95111,-85.084724,CSV
CSW,Colorado do Oeste,-13.019444,-61.168056,CSW
CSX,Changsha Huanghua Airport,28.19066605,113.2199143,CSX
CSY,Cheboksary Airport,56.13333,47.266666,CSY
CSZ,Brigadier Hector Ruiz,-37.433334,-61.88333,CSZ
CTA,Catania-Fontanarossa Airport,37.4672426,15.06756827,CTA
CTB,Cut Bank,48.63333,-112.333336,CTB
CTC,Catamarca Airport,-28.448334,-65.779724,CTC
CTD,Chitre,7.98858265,-80.40974542,CTD
CTE,Carti,8.833333,-80.833336,CTE
CTF,Coatepeque Airport,14.766667,-91.916664,CTF
CTG,Rafael Nunez International Airport,10.44164285,-75.51305749,CTG
CTH,Chestercounty Carlson,39.983334,-75.833336,CTH
CTI,Cuito Cuanavale,-15.15992705,19.15590806,CTI
CTK,Canton,43.3,-96.583336,CTK
CTL,Charleville Airport,-26.4132996,146.2619934,CTL
CTM,Chetumal Airport,18.50736655,-88.33391305,CTM
CTN,Cooktown Airport,-15.44428915,145.18491,CTN
CTO,Peconic River,38.63333,-77.683334,CTO
CTP,Carutapera,-1.250278,-46.0172234,CTP
CTQ,Do Palmar,-18.85,-50.1,CTQ
CTR,Cattle Creek,-17.583332,131,CTR
CTS,New Chitose Airport,42.786787,141.6829598,SPK
CTT,Le Castellet,43.2522806,5.782726669,CTT
CTU,Chengdu Shuangliu International Airport,30.5547767,103.9479447,CTU
CTV,Catoca Airport,-9.430985,20.311478,CTV
CTW,Cottonwood,34.72952405,-112.0351047,CTW
CTX,Cortland,42.5925704,-76.2143742,CTX
CTY,Cross City,29.63640735,-83.10488329,CTY
CTZ,Sampson County,34.9758159,-78.3636912,CTZ
CUA,Ciudad Constitución Airport,25.036943,-111.664444,CUA
CUB,Owens Field,33.936943,-81.11528,CAE
CUC,Camilo Daza International Airport,7.92892685,-72.51151603,CUC
CUD,Caloundra,-26.80301345,153.1078723,CUD
CUE,Mariscal Lamar International Airport,-2.889343,-78.98689,CUE
CUF,Levaldigi Airport,44.54739375,7.623336249,CUF
CUG,Cudal,-32,151,CUG
CUH,Municipal,35.983334,-96.76667,CUH
CUI,Currillo,4.666667,-72,CUI
CUJ,Culion,11.833333,120,CUJ
CUK,Caye Caulker,17.7351537,-88.03229537,CUK
CUL,Culiacan International Airport,24.76450365,-107.478339,CUL
CUM,Cumana,10.4510747,-64.13215209,CUM
CUN,Cancun International Airport,21.0407394,-86.88181491,CUN
CUO,Caruru,1.033333,-71.23333,CUO
CUP,Carupano,10.6607285,-63.26154023,CUP
CUQ,Coen,-13.76219095,143.1157573,CUQ
CUR,Curacao International Airport,12.1890286,-68.9621609,CUR
CUS,Municipal,31.833332,-107.63333,CUS
CUT,Cutral,-38.9,-69,CUT
CUU,Gen Fierro Villalobos Airport,28.704048,-105.96952,CUU
CUV,Casigua,11.066667,-70.95,CUV
CUW,Cube Cove,57.941666,-134.75,CUW
CUX,Cuddihy Field,27.75,-97.33611,CRP
CUY,Cue,-27.4469307,117.9177756,CUY
CUZ,Alejandro Velasco Astete International Airport,-13.5362553,-71.93777215,CUZ
CVA,Civic Ar Heli,40.496666,-80.23583,PIT
CVB,Chungribu,-4.8066201,144.7149963,CVB
CVC,Cleve,-33.70953905,136.5050336,CVC
CVE,Covenas,9.40092,-75.6913,CVE
CVF,Courchevel,45.397101,6.633762365,CVF
CVG,Cincinnati/Northern Kentucky Airport,39.0555,-84.66145,CVG
CVH,Caviahue,-37.916668,-71,CVH
CVI,Caleta Olivia,-46.416668,-67.416664,CVI
CVJ,General Mariano Matamoros Airport,18.916668,-99.25,CVJ
CVL,Cape Vogel,-9.466667,150.5,CVL
CVM,Ciudad Victoria Airport,23.713888,-98.96528,CVM
CVN,Clovis Municipal Airport,34.42584135,-103.0797077,CVN
CVO,Albany,44.63333,-123.11667,CVO
CVQ,Carnarvon Airport,-24.883429,113.66358,CVQ
CVR,Hughes,33.975,-118.417,CVR
CVS,Cannon AFB,34.382445,-103.320967,CVN
CVT,Coventry Airport,52.3699147,-1.481289537,CVT
CVU,Corvo Island (Azores) Airport,39.7,-31.1,CVU
CWA,Central Wisconsin Airport,44.7727172,-89.66716494,AUW
CWB,Afonso Pena International Airport,-25.5322,-49.176544,CWB
CWC,Chernivtsi International Airport,48.26047165,25.97853292,CWC
CWF,Chennault International.,30.305918,-93.23189,LCH
CWG,Callaway Gardens,32.8418797,-84.8784817,CWG
CWI,Clinton,41.829445,-90.33195,CWI
CWJ,Cangyuan Washan Airport,23.2772471,99.37478144,CWJ
CWK,Chitrakoot Airport,25.167694,80.9358,CWK
CWL,Cardiff Airport,51.39850525,-3.339210333,CWL
CWO,Ft Wolter AAF,32.8,-98.11667,MWL
CWP,Campbellpore,33.766666,72.433334,CWP
CWR,Cowarie,-27.7125889,138.3256346,CWR
CWS,Center Island,47.485,-122.83139,CWS
CWT,Cowra,-33.8447919,148.6487317,CWT
CWW,Corowa,-35.966667,146.35,CWW
CWX,Cochise County Airport,32.2460187,-109.8947839,CWX
CXA,Caicara Del Orinoco,7.62584735,-66.16444198,CXA
CXB,Coxs Bazar Airport,21.45533845,91.9640527,CXB
CXC,Chitina Airport,61.5833487,-144.4322008,CXC
CXF,Coldfoot,67.25154445,-150.20424,CXF
CXH,Coal Harbour Sea Plane Base,49.266666,-123.11667,YVR
CXI,Christmas Island Airport,1.966667,-157.45,CXI
CXJ,Hugo Cantergiani Regional Airport,-29.19705975,-51.1861648,CXJ
CXL,International,32.666668,-115.51667,CXL
CXN,Candala,11.4957059,49.9105124,CXN
CXO,Montgomery Co,30.316668,-95.45,CXO
CXP,Tunggul Wulung,-7.733333,109,CXP
CXQ,Christmas Creek,-18.866667,125.916664,CXQ
CXR,Cam Ranh International Airport,11.9968644,109.2172886,NHA
CXT,Charters Towers,-20.046667,146.26917,CXT
CXY,Cat Cays,25.416668,-77.816666,CXY
CYA,Les Cayes,18.2700495,-73.79197271,CYA
CYB,Charles Kirkconnel International Airport,19.690191,-79.87941,CYB
CYC,Caye Chapel,17.666668,-88.833336,CYC
CYD,San Ignacio Town Airstrip,17.104722,-89.101389,CYD
CYE,Crystal Lake,41.210278,-75.83222,CYE
CYF,Chefornak Sea Plane Base,60.216667,-164.2,CYF
CYG,Corryong,-36.25,147.9,CYG
CYI,Chiayi Airport,23.45932555,120.3937162,CYI
CYL,Coyoles,15,-86.5,CYL
CYM,Chatham SPB,57.5,-135,CYM
CYO,Cayo Largo Del Sur Airport,21.616667,-81.51667,CYO
CYP,Calbayog Airport,12.069754,124.5458346,CYP
CYR,Laguna De Los Patos,-34.166668,-57.5,CYR
CYS,Cheyenne,41.1528709,-104.819273,CYS
CYT,Intermediate,60.08,-142.49445,CYT
CYU,Cuyo,10.883333,121,CYU
CYW,Celaya,20.5456333,-100.8852786,CYW
CYX,Cherskiy Airport,68.7427218,161.3324435,CYX
CYZ,Cauayan Airport,16.9305428,121.7522268,CYZ
CZA,Chichen Itza,20.666668,-88.566666,CZA
CZB,Carlos Ruhl,-28.641666,-53.558334,CZB
CZC,Copper Centre,61.966667,-145.3,CZC
CZE,Coro,11.415833,-69.681946,CZE
CZF,Cape Romanzof,61.7803453,-166.040404,CZF
CZH,Corozal,18.38232605,-88.41086534,CZH
CZJ,Corazon De Jesus,9.570556,-79.368614,CZJ
CZK,Cascade Locks/Stevens,45.666668,-121.9,CZK
CZL,Ain El Bey Airport,36.3051916,6.6184457,CZL
CZM,Cozumel Airport,20.52296195,-86.92943828,CZM
CZN,Chisana Field,62.07083,-142.05,CZN
CZO,Chistochina,62.5636319,-144.669765,CZO
CZP,Cape Pole,55.9661111,-133.7966667,CZP
CZR,Chara Kyust-Kemda Airport,56.913333,118.27,CZR
CZS,Campo Internacional Airport,-7.583333,-72.78333,CZS
CZT,Carrizo Springs,28.523977,-99.831245,CZT
CZU,Corozal Airport,9.3375,-75.282776,CZU
CZW,Czestochowa,50.816666,19.1,CZW
CZX,Changzhou Airport,31.9184829,119.7784139,CZX
CZY,Cluny,-24.516666,139.53334,CZY
CZZ,Campo,37.1,-102.583336,CZZ
DAA,Davison AAF,37.5,-78.75,DAA
DAB,Daytona Beach International Airport,29.1816439,-81.05426943,DAB
DAC,Hazrat Shahjalal International Airport,23.84229135,90.40375286,DAC
DAD,Da Nang International Airport,16.0425792,108.1971613,DAD
DAF,Daup,-4.733333,144.95,DAF
DAG,Barstow-Daggett,34.25,-117.333336,DAG
DAH,Dathina,13.866667,46.13333,DAH
DAJ,Dauan Island,-9.433333,142.53334,DAJ
DAK,Dakhla,25.414722,28.999166,DAK
DAL,Dallas Love Field,32.8450229,-96.8498413,DFW
DAM,Damascus International Airport,33.4108334,36.51391167,DAM
DAN,Municipal,36.573055,-79.335,DAN
DAO,Dabo,-8.433056,147.84944,DAO
DAP,Darchula,29.6684704,80.54784911,DAP
DAR,Julius Nyerere International Airport,-6.8741937,39.20752396,DAR
DAS,Great Bear Lake,66.7031021,-119.707,DAS
DAT,Datong Airport,40.06061715,113.4818547,DAT
DAU,Daru Airport,-9.0867605,143.2079998,DAU
DAV,Enrique Malek Airport,8.383333,-82.433334,DAV
DAX,Dazhou Heshi Airport,31.12818985,107.4284826,DAX
DAY,James M. Cox Dayton International Airport,39.9053187,-84.22024542,DAY
DAZ,Darwaz,38.4611015,70.8824997,DAZ
DBA,Dalbandin,28.873098,64.40751848,DBA
DBB,Alalamain International,30.924444,28.46139,DBB
DBC,Baicheng Chang'an,45.5065501,123.0206999,DBC
DBD,Dhanbad,23.783333,86.45,DBD
DBK,Dutch Bay SPB Seaplane Base,8.273,79.756,DBK
DBM,Debra Marcos,10.319444,37.743057,DBM
DBN,Municipal,32.561943,-82.986115,DBN
DBO,Dubbo City Regional Airport,-32.2150208,148.5781248,DBO
DBP,Debepare,-6.3082279,141.9048285,DBP
DBQ,Dubuque Municipal Airport,42.41,-90.71083,DBQ
DBR,Darbhanga Airport,26.1967856,85.9118892,DBR
DBS,Dubois,44.166668,-112.23333,DBS
DBT,Debra Tabor,11.968056,38.025276,DBT
DBU,Dambulu Oya Tank,7.86,80.651665,DBU
DBV,Dubrovnik Airport,42.56149335,18.26433626,DBV
DBY,Dalby,-27.15804315,151.2593984,DBY
DCA,Ronald Reagan National Airport,38.853436,-77.04346,WAS
DCF,Canefield Airport,15.5,-61.333332,DOM
DCG,Dubai Creek SPB,25.2644444,55.3116667,DXB
DCI,Rafsu Decimomannu,39.35,8.966667,DCI
DCK,Dahl Creek Airport,66.9441134,-156.9057329,DCK
DCM,Mazamet Airport,43.5563998,2.289003274,DCM
DCN,RAAF Curtin,-17.580804,123.8215436,DRB
DCP,Cabin Plant Heliport,59.23361111,-121.691388,DCP
DCR,Decatur Hi-Way,40.833332,-84.933334,DCR
DCT,Duncan Town,22.25,-75.75,DCT
DCU,Pyor,34.6,-86.98333,DCU
DCY,Daocheng Yading Airport,29.31628015,100.0605535,DCY
DDC,Dodge City Municipal Airport,37.7611827,-99.9657378,DDC
DDD,Dhaalu Airport,2.66648215,72.8861168,DDD
DDG,Langtou Airport,40.0264417,124.2815411,DDG
DDI,Daydream Island,-20.266666,148.81667,DDI
DDM,Dodoima,-8.483333,145.16667,DDM
DDN,Delta Downs,-16.916668,141.3,DDN
DDP,Dorado Beach,18.483334,-66.15,DDP
DDR,Shigatse Tingri Airport,28.604567,86.798,DDR
DDU,Dadu,26.75,67.75,DDU
DEA,Dera Ghazi Khan Airport,29.9462594,70.5222664,DEA
DEB,Debrecen Airport,47.55,21.7,DEB
DEC,Decatur Airport,39.83349835,-88.86199101,DEC
DED,Dehra Dun Airport,30.316668,78.03333,DED
DEE,Mendeleyevo Airport,43.96107965,145.6840018,DEE
DEF,Dezful Airport,32.4401058,48.385778,DEF
DEH,Municipal,43.3,-91.8,DEH
DEI,Denis Island,-3.80192305,55.66720067,DEI
DEL,Indira Gandhi International Airport,28.5551678,77.08473848,DEL
DEM,Dembidollo,8.5508879,34.85988637,DEM
DEN,Denver International Airport,39.8606676,-104.6853673,DEN
DEO,Hyatt Regency Heliport,42.3,-83.166664,DEO
DEP,Deparizo,27.35,94,DEP
DEQ,Deqing Moganshan Airport,30.504167,120.107222,DEQ
DER,Derim,-6.1,147.08333,DER
DES,Desroches,-5.69661175,53.65595195,DES
DET,Detroit City,42.4112358,-83.00852132,DTT
DEX,Nop Goliat Airport,-4.8560338,139.4797211,DEX
DEZ,Al Jafrah,35.28755,40.186806,DEZ
DFA,Danfeng Airport,33.7085,110.2493,DFA
DFI,Memorial,41.283333,-84.36667,DFI
DFP,Drumduff,-16,143.33333,DFP
DFW,Dallas/Fort Worth International Airport,32.89651945,-97.04652205,DFW
DGA,Dangriga,17.183332,-88.566666,DGA
DGB,Danger Bay,58.083332,-152.75,DGB
DGC,Degahbur,8.233333,43.583332,DGC
DGD,Dalgaranga,-27.818056,117.30139,DGD
DGE,Mudgee,-32.56243675,149.6139343,DGE
DGF,Douglas Lake,50.1645563,-120.1702593,DGF
DGG,Daugo,68.03,-162.9,DGG
DGH,Deoghar International Airport,24.444722,86.7025,DGH
DGK,Dugong,-22.134167,35.443611,DGK
DGL,Douglas Municipal,31.35,-109.566666,DUG
DGM,Dongguan,23.03,113.74,DGM
DGN,NAF,38.2,-88.683334,DGN
DGO,Guadalupe Victoria Airport,24.125,-104.525,DGO
DGP,Daugavpils,55.88333,26.533333,DGP
DGR,Dargaville,-35.93911065,173.8940714,DGR
DGT,Dumaguete Airport,9.3340538,123.3019857,DGT
DGU,Dedougou,12.45805445,-3.491975386,DGU
DGW,Converse County,42.75,-105.4,DGW
DHA,King Abdulaziz AB,26.39286,50.17475,DHA
DHB,Deer Harbor,48.6209117,-123.0032063,DHB
DHD,Durham Downs,-26.1,149.08333,DHD
DHF,Al Dhafra Military Airport,24.433332,54.65,AUH
DHG,Dalnegorks,44.55892,135.491233,DHG
DHH,Balikun Dahe Airport,43.7546,93.1311,DHH
DHI,Dhangarhi,28.683332,80.63333,DHI
DHL,Dhala,13.7375,44.729168,DHL
DHM,Gaggal Airport,32.3,76.26667,DHM
DHN,Dothan Regional Airport,31.32003875,-85.44995912,DHN
DHO,Horn River,59.4593,-122.2553,DHO
DHR,De Kooy/Den Helder Airport,52.95,4.75,DHR
DHT,Dalhart,36.066666,-102.51667,DHT
DHX,Dhoho International Airport,-7.761672,111.951521,DHX
DIA,Doha International Airport,25.2607,51.5646,DIA
DIB,Dibrugarh Airport,27.4854679,95.0170764,DIB
DIE,Antsiranana/Arrachart,-12.3465933,49.28811328,DIE
DIG,Diqing Shangri-La Airport,27.79673685,99.68187687,DIG
DIJ,Dijon,47.26619305,5.088719824,DIJ
DIK,Dickinson Regional Airport,46.833332,-102.9,DIK
DIL,Comoro Airport,-8.549616,125.525,DIL
DIM,Dimbokro,6.75,-4.766667,DIM
DIN,Dien Bien Airport,21.3949323,103.0070362,DIN
DIO,Diomede Island,65.75,-168.95,DIO
DIP,Diapaga,12.033333,2.033333,DIP
DIQ,Divinopolis,-20.18147045,-44.87004452,DIQ
DIR,Aba Tenna D Yilma Airport,9.61338,41.857994,DIR
DIS,Loubomo,-4.20510725,12.65893052,DIS
DIU,Diu Airport,20.71439565,70.92204629,DIU
DIV,Divo,5.8,-5.25,DIV
DIW,Mawella Lagoon Airport,5.990751,80.73323,DIW
DIY,Diyarbakir Airport,37.89232495,40.19921443,DIY
DJA,Djougou,9.6922065,1.636236,DJA
DJB,Sultan Thaha Airport,-1.63925445,103.646151,DJB
DJE,Melita Airport,33.87118,10.775145,DJE
DJG,Inedbirenne Airport,24.465279,9.488889,DJG
DJH,Jebel Ali Seaplane Base,24.988889,55.023889,DJH
DJJ,Sentani Airport,-2.5782397,140.5184883,DJJ
DJM,Djambala,-2.515203,14.75577103,DJM
DJN,Delta Junction,64.0488787,-145.7171901,DJN
DJO,Daloa,6.866944,-6.466667,DJO
DJU,Djupivogur,64.6430303,-14.2775558,DJU
DKA,Katsina,13.0057213,7.659455216,DKA
DKI,Dunk Island,-17.9371869,146.140759,DKI
DKK,Dunkirk,42.483334,-79.333336,DKK
DKL,Kiwigana Lodge Heliport,59.2416,-122.9222,DKL
DKR,Leopold Sedar Senghor International Airport,14.73702885,-17.48270937,DKR
DKS,Dikson,73.51668275,80.37453517,DKS
DKV,Docker River,-24.85969965,129.1221569,DKV
DLA,Douala Airport,4.01357,9.716386662,DLA
DLB,Dalbertis,56.7417,23.8911,DLB
DLC,Dalian Zhoushuizi International Airport,38.96412695,121.5414272,DLC
DLE,Dole-Jura Airport,47.0417424,5.427646765,DLE
DLF,Laughlin AFB,29.366667,-100.9,DRT
DLG,Dillingham Airport,59.0433568,-158.5112028,DLG
DLH,Duluth International Airport,46.84183845,-92.20329685,DLH
DLI,Lien Khuong Airport,11.75042785,108.3611709,DLI
DLK,Dulkaninna,-29.016666,139.46666,DLK
DLL,Dillon,34.416668,-79.36667,DLL
DLM,Dalaman Airport,36.71183085,28.78578384,DLM
DLN,Dillon,45.216667,-112.63333,DLN
DLO,Dolomi,55.122223,-132.05,DLO
DLR,Dalnerechensk Airport,45.8783,133.7363,DLR
DLS,Columbia Gorge Regional/The Dalles Municipal Airport,45.6,-121.166664,DLS
DLU,Dali Airport,25.6498551,100.319887,DLU
DLV,Delissaville,-12.566667,130.63333,DLV
DLY,Dillons Bay,-18.7,169.15,DLY
DLZ,Dalanzadgad,43.966667,104.683334,DLZ
DMA,Davis Monthan AFB,32.17079565,-110.8699024,TUS
DMB,Jambyl Airport,42.9,71.36667,DMB
DMD,Doomadgee Airport,-17.93696505,138.8145357,DMD
DME,Moscow Domodedovo Airport,55.40912105,37.90416621,MOW
DMK,Don Mueang International Airport,13.9122207,100.6035314,BKK
DMM,King Fahd International Airport,26.46739665,49.79887844,DMM
DMN,Deming,32.2623094,-107.7205839,DMN
DMO,Sedalia,38.70902845,-93.17533283,DMO
DMR,Dhamar,14.533333,44.433334,DMR
DMT,Diamantino,-14.5,-56.5,DMT
DMU,Dimapur Airport,25.88526825,93.76774143,DMU
DNA,Kadena AB,26.3555999,127.7675,OKA
DNB,Dunbar,-16.010834,142.39055,DNB
DND,Dundee Airport,56.4526716,-3.02604042,DND
DNE,Dallas North Airport,32.75,-97.38333,DFW
DNF,Martuba,32.55,22.766666,DNF
DNG,Doongan,-15.3894937,126.2993393,DNG
DNH,Dunhuang Airport,40.2,94.683334,DNH
DNI,Wad Medani,14.383801,33.5273548,DNI
DNK,Dnepropetrovsk International Airport,48.3612473,35.09662173,DNK
DNL,Daniel Field,33.466667,-81.96667,AGS
DNM,Denham,-25.8975961,113.575947,DNM
DNN,Municipal,34.766666,-84.96667,DNN
DNO,Dianopolis,-11.5953999,-46.8466988,DNO
DNP,Dang,28.1121283,82.2903094,DNP
DNQ,Deniliquin,-35.556631,144.9478841,DNQ
DNR,Pleurtuit Airport,48.587776,-2.083611,DNR
DNS,Municipal,42.016666,-95.35,DNS
DNT,Downtown Heliport,33.766666,-117.86667,SNA
DNU,Dinangat,-6.154976,146.6777366,DNU
DNV,Vermilion County,40.2003859,-87.59618326,DNV
DNX,Galegu,14.1,33.066666,DNX
DNZ,Cardak Airport,37.78603475,29.6973403,DNZ
DOA,Doany,-14.3681002,49.5107994,DOA
DOB,Dobo Airport,-5.75,134,DOB
DOC,Dornoch,57.868827,-4.023288,DOC
DOD,Dodoma Airport,-6.17006815,35.75443062,DOD
DOE,Djoemoe,4.016667,-55.483334,DOE
DOF,Dora Bay,55.2125,-132.26666,DOF
DOG,Dongola,19.1533534,30.43057894,DOG
DOH,Hamad International Airport,25.267569,51.558067,DOH
DOI,Doini,-10.70118125,150.7230842,DOI
DOK,Donetsk International Airport,48.0713952,37.74079599,DOK
DOL,Saint Gatien Airport,49.362778,0.164167,DOL
DOM,Melville Hall Airport,15.54648545,-61.3020804,DOM
DON,Dos Lagunas,17.633333,-89.666664,DON
DOO,Dorobisoro,-9.266667,147.55,DOO
DOP,Dolpa,28.9853814,82.81900214,DOP
DOR,Dori,14.0261569,-0.0650342,DOR
DOS,Dios,-5.533333,154.83333,DOS
DOU,Dourados Airport,-22.20140635,-54.9264022,DOU
DOV,Dover AFB,39.1283048,-75.46791932,DOV
DOX,Dongara,-29.25,114.933334,DOX
DOY,Dongying Airport,37.5027216,118.7864288,DOY
DPA,DuPage Airport,41.90513465,-88.25218333,CHI
DPB,Pampa Guanaco Airport,-54.05,-68.808333,DPB
DPE,Dieppe,49.961388,1.241111,DPE
DPG,Michael AAF,40.233334,-112.75,DPG
DPK,Deer Park,41,-73.53333,DPK
DPL,Dipolog Airport,8.6024118,123.341997,DPL
DPO,Devonport Airport,-41.1717979,146.4275923,DPO
DPP,Datia Airport,25.649972,78.503167,DPP
DPS,Ngurah Rai International Airport,-8.7458582,115.167339,DPS
DPT,Deputatsky,69.39220535,139.8891401,DPT
DPU,Dumpu,-5.883333,145.75,DPU
DQA,Daqing Shi Airport,46.58736,125.22841,DQA
DQM,Duqm International Airport,19.50219325,57.64392817,DQM
DRA,Desert Rock,36.666668,-115.96667,DRA
DRB,Derby,-17.3719837,123.6625186,DRB
DRC,Dirico,-17.833332,20.7,DRC
DRD,Dorunda Station,-16.5,142.33333,DRD
DRE,Drummond Island,46.0096005,-83.7414303,DRE
DRF,Drift River,60.5886111,-152.1619444,DRF
DRG,Deering Airport,66.0685517,-162.7661743,DRG
DRH,Dabra,-3.25,138.56667,DRH
DRI,Beauregard Parish,30.85,-93.28333,DRI
DRJ,Drietabbetje,4.1114213,-54.6727808,DRJ
DRK,Drake Bay,8.71811025,-83.63672169,DRK
DRN,Dirranbandi,-28.5845215,148.2195588,DRN
DRO,Durango-La Plata County Airport,37.15284235,-107.7586059,DRO
DRP,Bicol International Airport,13.112222,123.677222,DRP
DRR,Durrie,-25.616667,140.21666,DRR
DRS,Dresden International Airport,51.1342993,13.76948078,DRS
DRT,Del Rio International Airport,29.333332,-100.97833,DRT
DRU,Drummond,46.666668,-113.15,DRU
DRV,Dharavandhoo AIrport,5.1563788,73.1297148,DRV
DRW,Darwin International Airport,-12.41190185,130.8836201,DRW
DRY,Drysdale River,-15.666667,126.416664,DRY
DSA,Doncaster Sheffield Airport,53.47641295,-1.006120646,DSA
DSC,Dschang,5.833333,10.091667,DSC
DSD,La Desirade,16.333332,-61.016666,DSD
DSE,Combolcha,11.10606835,39.72660294,DSE
DSG,Dilasag,14,120,DSG
DSI,Destin-Fort Walton Beach Airport,30.383333,-86.5,DSI
DSK,Dera Ismail Khan,31.91095685,70.88688793,DSK
DSM,Des Moines International Airport,41.534256,-93.65927182,DSM
DSN,Ordos Ejin Horo Airport,39.85,110.03333,DSN
DSO,Sondok,39.7462648,127.4721274,DSO
DSS,Blaise Diagne International Airport,14.6655114,-17.07343117,DKR
DST,Dubai Seaplane Terminal,25.25971985,55.27162933,DST
DSV,Dansville,42.5670515,-77.7157342,DSV
DSX,Dongsha Island,20.7061886,116.7224838,DSX
DSY,Dara Sakor International Airport,10.91482235,103.2252651,DSY
DTA,Delta,39.38333,-112.5,DTA
DTB,Sisingamangaraja XII International Airport,2.26118555,98.97717829,DTB
DTD,Datadawai,0.621316,116.60037,DTD
DTE,Naga,14.133333,122.98333,DTE
DTH,Death Valley,36.5,-117,DTH
DTI,Diamantina,-18.23369525,-43.6503672,DTI
DTL,Municipal,46.82639,-95.88611,DTL
DTM,Dortmund Airport,51.51690725,7.609717872,DTM
DTN,Shreveport Downtown,32.54041615,-93.74500728,SHV
DTR,Decatur Island,48.5034859,-122.813495,DTR
DTU,Wudalianchi Dedu Airport,48.4429184,126.1378092,DTU
DTW,Detroit Metropolitan Wayne County Airport,42.2056991,-83.35297538,DTT
DUA,Eaker,33.983334,-96.416664,DUA
DUB,Dublin Airport,53.4288026,-6.247592522,DUB
DUC,Halliburton Field,34.4720262,-97.960035,DUC
DUD,Dunedin International Airport,-45.9277448,170.2004543,DUD
DUE,Dundo,-7.4036255,20.81559179,DUE
DUF,Pine Island Airport,36.25833,-75.78889,DUF
DUG,Bisbee-Douglas International,31.46388645,-109.6048261,DUG
DUJ,Du Bois-Jefferson County,41.178333,-78.89889,DUJ
DUK,Dukuduk,-28.366667,32.234165,DUK
DUM,Pinang Kampai,1.60899315,101.4333272,DUM
DUN,Dundas,76.577225,-68.77556,DUN
DUQ,Duncan/Quam,48.783333,-123.7,DUQ
DUR,King Shaka International Airport,-29.6099422,31.11688171,DUR
DUS,Dusseldorf International Airport,51.2869035,6.761736665,DUS
DUT,Unalaska Airport,53.8966037,-166.5415409,DUT
DVD,Andavadoaka,-22.078333,43.259167,DVD
DVK,Diavik,64.5113983,-110.289001,DVK
DVL,Devils Lake Airport,48.1138202,-98.9072037,DVL
DVN,Davenport,41.60892285,-90.58936778,DVN
DVO,Francisco Bangoy Intl Airport,7.1248797,125.6434576,DVO
DVP,Davenport Downs,-24.1499996,141.1080017,DVP
DVR,Daly River,-13.75071,130.6952714,DVR
DVT,Phoenix Deer Valley Airport,33.68916925,-112.0798043,PHX
DWA,Dwangwa,-13,34.13333,DWA
DWB,Soalala,-16.101381,45.3581714,DWB
DWC,Dubai World Central - Al Maktoum International Airport,24.918056,55.175278,DXB
DWD,Dawadmi Airport,24.4500793,44.12581917,DWD
DWF,Wright AFB,39.666668,-84.183334,DAY
DWH,David Wayne Hooks,29.75,-95.416664,HOU
DWN,Downtown Airpark,35.45,-97.53333,OKC
DWO,Diyawanna Oya Seaplane Base,6.904439,79.9093208,DWO
DWR,Dwyer Air Base,31,64,DWR
DWS,Walt Disney World,28.4020746,-81.5722231,ORL
DXB,Dubai Airport,25.248665,55.352917,DXB
DXD,Dixie,-15.166667,143.66667,DXD
DXE,Bruce Campbell Field,32.4392835,-90.10313414,DXE
DXJ,Xiangxi Biancheng Airport,28.4972,109.5218,DXJ
DXR,Danbury Municipal Airport,41.3721531,-73.48139627,DXR
DYA,Dysart,-23.5,148,DYA
DYG,Zhangjiajie Hehua Airport,29.1038685,110.4447207,DYG
DYL,Doylestown,40.3332001,-75.1227001,DYL
DYM,Diamantina Lakes,-26.75,139.16667,DYM
DYR,Anadyr Airport,64.73627165,177.7358337,DYR
DYS,Dyess AFB,32.466667,-99.71667,ABI
DYU,Dushanbe Airport,38.54557415,68.82363702,DYU
DYW,Daly Waters,-16.2631641,133.3775724,DYW
DZA,Dzaoudzi Airport,-12.80901715,45.28166028,DZA
DZH,Dazhou Jinya Airport,31.05057705,107.4369822,DZH
DZI,Codazzi,10.0375,-73.283611,DZI
DZN,Zhezhazgan Airport,47.7,67.73333,DZN
DZO,Santa Bernardina,-33.416668,-56.516666,DZO
DZU,Dazu,29.7,105.71667,DZU
EAA,Eagle,64.77788825,-141.1489351,EAA
EAB,Abbse,14.583333,43.5,EAB
EAE,Emae,-17.166668,168.41667,EAE
EAL,Elenak,9.3201752,166.8454746,EAL
EAM,Nejran,17.61030315,44.41506761,EAM
EAN,Phifer Field,42.05,-104.96667,EAN
EAP,EuroAirport Basel-Mulhouse-Freiburg Airport,47.59,7.529167,EAP
EAR,Kearney Regional Airport,40.7266522,-99.0016625,EAR
EAS,San Sebastian Airport,43.35662365,-1.791903696,EAS
EAT,Pangborn Field,47.399723,-120.20778,EAT
EAU,Eau Claire Airport,44.8689683,-91.48550075,EAU
EBA,Marina Di Campo Airport,42.766666,10.283333,EBA
EBB,Entebbe International Airport,0.044802,32.4429895,EBB
EBD,El Obeid,13.14999945,30.2317217,EBD
EBG,El Bagre,7.5959692,-74.80916546,EBG
EBH,El Bayadh,33.7271397,1.098237258,EBH
EBJ,Esbjerg Airport,55.5257193,8.551971128,EBJ
EBL,Erbil International Airport,36.23784135,43.94890171,EBL
EBM,El Borma,31.70399195,9.254241482,EBM
EBN,Ebadon,9.3305597,166.8200073,EBN
EBO,Ebon Airport,4.5988889,168.7530556,EBO
EBR,Downtown,30.45,-91.183334,BTR
EBS,Municipal,42.466667,-93.816666,EBS
EBU,Boutheon Airport,45.54139,4.296944,EBU
EBW,Ebolowa,2.916667,11.166667,EBW
ECA,Emmet County Airport,44.266666,-83.48333,ECA
ECG,Elizabeth City,36.2605734,-76.17204984,ECG
ECH,Echuca,-36.1621057,144.7610911,ECH
ECI,Costa Esmeralda Airport,11.4277197,-86.034155,ECI
ECN,Ercan Airport,35.1522933,33.50533235,ECN
ECO,El Encanto,-1.616667,-73.23333,ECO
ECP,NW Florida Beaches Int,30.357803,-85.79892,PFN
ECR,El Charco,2.5,-78,ECR
ECS,Mondell,43.833332,-104.183334,ECS
EDA,Edna Bay,55.949259,-133.6632433,EDA
EDB,Eldebba,18.013889,30.959722,EDB
EDC,Austin Executive Airport,30.3974931,-97.5663935,EDC
EDD,Erldunda,-25.25,133.2,EDD
EDE,Municipal,36.066666,-76.65,EDE
EDF,Elmendorf AFB,61.25323915,-149.8081802,ANC
EDG,Weide AAF,39.465668,-76.360916,EDG
EDI,Edinburgh Airport,55.9501289,-3.359507986,EDI
EDK,El Dorado,37.816666,-96.86667,EDK
EDL,Eldoret Airport,0.4043631,35.23328886,EDL
EDM,Les Ajoncs,46.7018458,-1.37972231,EDM
EDN,Enterprise Muni Airport,31.2997,-85.8998,EDN
EDO,Balikesir Koca Seyit Airport,39.583332,27.033333,EDO
EDQ,Erandique,14.2569437,-88.3925018,EDQ
EDR,Edward River,-14.9,141.61667,EDR
EDW,Edwards AFB,35,-117.916664,EDW
EEA,Aeroporto Regional do Planalto Serrano,-27.63194875,-50.34963378,EEA
EED,Needles,34.85,-114.61667,EED
EEK,Eek Airport,60.21367395,-162.0439578,EEK
EEN,Dillant-Hopkins,42.8946227,-72.26985656,EEN
EES,Berenice International Airport,23.980303,35.45003686,IUP
EFB,Eight Fathom Bight,58,-135.73334,EFB
EFD,Ellington Field,29.6,-95.15,HOU
EFG,Efogi,-9.1537629,147.6598192,EFG
EFK,Newport,44.889442,-72.23,EFK
EFL,Kefallinia Airport,38.1201464,20.50046517,EFL
EFO,East Fork Airport,64.69277777,-164.276388,EFO
EFW,Municipal,42.016666,-94.38333,EFW
EGA,Engati,-6.91796805,146.1056283,EGA
EGC,Roumanieres Airport,44.85,0.483333,EGC
EGE,Eagle County Airport,39.63988,-106.91347,EGE
EGI,Duke Field,30.483334,-86.5,VPS
EGL,Neghelli,5.2758674,39.7525564,EGL
EGM,Sege Airport,-8.577956,157.87506,EGM
EGN,Geneina Airport,13.4875,22.469444,EGN
EGO,Belgorod Airport,50.63333,36.65,EGO
EGP,Maverick Co,28.702223,-100.48055,EGP
EGS,Egilsstadir Airport,65.28288915,-14.40198938,EGS
EGV,Eagle River,45.92917,-89.26583,EGV
EGX,Egegik Airport,58.1876085,-157.3757513,EGX
EHL,El Bolson,-42,-71.75,EHL
EHM,Cape Newenham,58.6463889,-162.0625,EHM
EHT,Rentschler,41.766666,-72.65,EHT
EHU,Ezhou Huahu Airport,30.346,115.0474,EHU
EIA,Popondetta,-8.116667,147.63333,EIA
EIB,Eisenach,50.983334,10.483333,EIB
EIE,Eniseysk,58.466667,92.11667,EIE
EIH,Einasleigh,-18.50447295,144.0941307,EIH
EIK,Yeysk,46.68697795,38.23715809,EIK
EIL,Eielson AFB,64.85,-147.71666,FAI
EIN,Eindhoven Airport,51.4571023,5.3926936,EIN
EIS,Terrance B. Lettsome International Airport,18.4457823,-64.53946734,EIS
EIY,Ein Yahav,30.6176292,35.2013787,EIY
EJA,Variguies Airport,7.015833,-73.799164,EJA
EJH,Wedjh Airport,26.207716,36.47481,EJH
EJN,Ejin Banner Taolai Airport,42.01684485,100.9972535,EJN
EJT,Enijet,6.083333,171.95,EJT
EKA,Murray Field,40.8034696,-124.1148247,EKA
EKB,Ekibastuz,51.590276,75.21788861,EKB
EKD,Elkedra,-21.15,135.55,EKD
EKE,Ekereku,5.916667,-59.88333,EKE
EKI,Municipal,41.72222,-85.992226,EKI
EKN,Elkins,38.889442,-79.85778,EKN
EKO,Elko Airport,40.82550195,-115.7880111,EKO
EKS,Shakhtyorsk Airport,49.190735,142.077703,EKS
EKT,Eskilstuna,59.36667,16.533333,EKT
EKX,Elizabethtown,37.68889,-85.92778,EKX
ELA,Eagle Lake,29.5994056,-96.3224655,ELA
ELB,San Bernado,9.048889,-73.97417,ELB
ELC,Elcho Island Airport,-12.01921715,135.5741728,ELC
ELD,South Arkansas Regional Airport,33.21626425,-92.8120756,ELD
ELE,El Real,8.106944,-77.726389,ELE
ELF,El Fasher Airport,13.6133482,25.32711264,ELF
ELG,El Golea Airport,30.58654715,2.864480363,ELG
ELH,North Eleuthera International Airport,25.4760797,-76.68117536,ELH
ELI,Elim Airport,64.6187457,-162.2702575,ELI
ELJ,El Recreo,2,-73.833336,ELJ
ELK,Municipal,35.416668,-99.416664,ELK
ELL,Ellisras,-23.716667,27.683332,ELL
ELM,Elmira Corning Regional Airport,42.1608441,-76.89199038,ELM
ELN,Bowers Field,46.983334,-120.566666,ELN
ELO,Eldorado,-26.5,-54.733334,ELO
ELP,El Paso International Airport,31.8092748,-106.3666426,ELP
ELQ,Prince Nayef bin Abdulaziz Regional Airport,26.305029,43.768177,ELQ
ELR,Elelim,-3.816667,140.06667,ELR
ELS,East London Airport,-33.0360848,27.82256057,ELS
ELT,Tour Sinai City,28.20850445,33.65118838,ELT
ELU,Guemar Airport,33.5119204,6.783513937,ELU
ELV,Elfin Cove SPB,58.183334,-136.31667,ELV
ELW,Ellamar,60.9,-146.23334,ELW
ELX,El Tigre,8.883333,-64.26667,ELX
ELY,Yelland,39.301945,-114.84194,ELY
ELZ,Municipal,42.11667,-77.95,ELZ
EMA,East Midlands Airport,52.832787,-1.3409974,NQT
EMB,Embarkadero,37.62528,-122.375,SFO
EMD,Emerald Airport,-23.5694249,148.1763221,EMD
EME,Emden,53.3901805,7.2276361,EME
EMG,Empangeni,-28.7195011,31.8927469,EMG
EMI,Emirau,-1.65217065,149.9682261,EMI
EMK,Emmonak Airport,62.7772076,-164.4944494,EMK
EML,Emmen,47.0930875,8.305648451,EML
EMM,Kemerer,41.783333,-110.55,EMM
EMN,Nema,16.6209866,-7.319334752,EMN
EMO,Emo,-9.15,147.95,EMO
EMP,Emporia,38.3294305,-96.19042974,EMP
EMS,Embessa,-9.45,148.86667,EMS
EMT,El Monte,34.083332,-118.03333,EMT
EMX,El Maiten,-42.028869,-71.1685403,EMX
EMY,El Minya,28.10069715,30.73123012,EMY
ENA,Kenai Municipal Airport,60.5706167,-151.2472795,ENA
ENB,Eneabba West,-30.083332,114.98333,ENB
ENC,Essey,48.69256605,6.229408542,ETZ
END,Vance AFB,36.4,-97.88333,WDG
ENE,H. Hasan Aroeboesman Airport,-8.8489196,121.6617987,ENE
ENF,Enontekio,68.3595872,23.4258445,ENF
ENG,Enggano Airport,-5.305361,102.189056,ENG
ENH,Enshi Airport,30.3212365,109.4841073,ENH
ENI,El Nido,11.2015392,119.4173859,ENI
ENJ,El Naranjo,17.333332,-90.166664,ENJ
ENK,Enniskillen St. Angelo,54.35,-7.633333,ENK
ENL,Municipal,38.516666,-89.13333,ENL
ENN,Municipal,64.566666,-149.11667,ENN
ENO,Teniente Prim Alarcon,-27.25,-55.833332,ENO
ENQ,Coronel E Soto Cano AB,14.369167,-87.617226,ENQ
ENS,Twente,52.2781025,6.882574,ENS
ENT,Enewetak Island,11.5,162.25,ENT
ENU,Enugu Airport,6.4719796,7.556717954,ENU
ENV,Wendover,40.7181504,-114.0268535,ENV
ENW,Kenosha Regional Airport,42.583332,-87.816666,ENW
ENY,Ershilipu Airport,36.63495905,109.549617,ENY
EOH,Enrique Olaya Herrera Airport,6.218666,-75.5864,MDE
EOI,Eday Airport,59.19167795,-2.769600805,EOI
EOK,Keokuk,40.459676,-91.42688363,EOK
EOR,El Dorado,6.733333,-61.88333,EOR
